start_station_name,start_station_id,start_lat,start_lng,total_trips,avg_trip_duration,member_trips,casual_trips,weekend_trips,weekday_trips,lunch_hour_trips,morning_trips,evening_trips,lunch_hour_share,weekend_share
W 21 St & 6 Ave,6140.05,40.74173969,-73.99415556,11153,9.199562709584864,10340,813,3038,8115,2677,2035,3881,0.24002510535281987,0.27239307809557967
Pier 61 at Chelsea Piers,6233.04,40.746872,-74.00821,10982,12.428716923146968,9303,1679,3139,7843,2381,2128,4119,0.21680932434893463,0.28583136040794027
Broadway & W 58 St,6948.10,40.76695317,-73.98169333,8183,15.116691981343436,6446,1737,2690,5493,2087,1664,2160,0.25504093853110105,0.3287302945130148
E 17 St & Broadway,5980.10,40.737006,-73.990134,8351,10.146149113878579,7432,919,2287,6064,2080,1288,2777,0.2490719674290504,0.2738594180337684
Lafayette St & E 8 St,5788.13,40.73020660529954,-73.99102628231049,9395,9.448423771509669,8511,884,2544,6851,2053,1379,3252,0.21852048962213944,0.2707823310271421
Broadway & W 25 St,6173.08,40.74286877312112,-73.98918628692627,8251,10.853025116147538,7251,1000,1940,6311,2011,973,3191,0.2437280329657011,0.2351230153920737
University Pl & E 14 St,5905.14,40.734814,-73.992085,8121,10.021652760333293,7129,992,2143,5978,1892,1194,2752,0.232976234453885,0.26388375815786236
Broadway & E 14 St,5905.12,40.73454567,-73.99074142,8429,9.759661284454463,7362,1067,2235,6194,1867,1171,2776,0.22149721200616918,0.26515600901649067
9 Ave & W 33 St,6492.08,40.752568,-73.996765,8946,11.099356362247558,8034,912,1531,7415,1817,1460,3496,0.2031075340934496,0.17113793874357255
7 Ave & Central Park South,6912.01,40.7667405590595,-73.9790689945221,6190,20.87891511847065,3955,2235,1715,4475,1722,1142,1776,0.2781906300484653,0.2770597738287561
Central Park S & 6 Ave,6876.04,40.76590936,-73.97634151,5515,24.45965821093986,2720,2795,1627,3888,1706,716,1693,0.3093381686310063,0.29501359927470533
Cleveland Pl & Spring St,5492.05,40.722103786686034,-73.99724900722504,7398,11.535533714066865,6340,1058,2274,5124,1653,930,2706,0.22343876723438766,0.3073803730738037
Norfolk St & Broome St,5374.01,40.7172274,-73.98802084,7964,10.875641151849992,6898,1066,2556,5408,1639,1388,2413,0.2058011049723757,0.3209442491210447
E 13 St & Ave A,5779.09,40.72966729392978,-73.98067966103554,8246,8.515866387743552,7401,845,2390,5856,1619,1693,2543,0.19633761823914625,0.289837496968227
W 31 St & 7 Ave,6331.01,40.749156,-73.9916,8968,10.541277737511152,7799,1169,1840,7128,1608,1833,2722,0.1793041926851026,0.20517395182872436
Broadway & E 21 St,6098.10,40.73988840858996,-73.98958593606949,7180,10.143612711234912,6379,801,1877,5303,1582,1039,2547,0.2203342618384401,0.2614206128133705
Lafayette St & Jersey St,5561.06,40.72456089,-73.99565293,7042,11.146990670264131,6140,902,2083,4959,1579,981,2540,0.224226072138597,0.29579664867935246
W 24 St & 7 Ave,6257.03,40.74487634,-73.99529885,6827,9.651078348225184,6151,676,1786,5041,1565,1270,2289,0.22923685366925442,0.2616083199062546
Greenwich Ave & 8 Ave,6072.06,40.7390169121,-74.0026376103,7268,9.28029079068061,6486,782,2288,4980,1562,1417,2248,0.21491469455145845,0.3148046230049532
W 43 St & 10 Ave,6756.01,40.76009437,-73.99461843,7369,10.741003804224906,6697,672,2003,5366,1538,1869,1938,0.20871217261500882,0.27181435744334376
11 Ave & W 41 St,6726.01,40.76030096,-73.99884222,7528,10.860283413035777,6690,838,2239,5289,1531,1617,2314,0.2033740701381509,0.297422954303932
E 10 St & Ave A,5659.05,40.72740794,-73.98142006,6072,10.172652591128678,5214,858,1961,4111,1504,1451,1478,0.24769433465085638,0.3229578392621871
Central Park S & Grand Army Plaza,6839.15,40.764555,-73.973473,4716,22.244930262227875,2775,1941,1313,3403,1502,581,1323,0.318490245971162,0.2784139100932994
E 33 St & 1 Ave,6197.08,40.74322681432173,-73.97449783980846,7607,10.233383920511809,6933,674,1806,5801,1495,2149,2039,0.19652951229131063,0.23741290916261337
Kent Ave & N 3 St,5348.06,40.71797940978296,-73.96427449047715,5738,11.281644129778087,5011,727,2098,3640,1494,968,2064,0.2603694667131405,0.3656326246078773
Carmine St & 6 Ave,5763.03,40.73038599,-74.00214988,6905,10.60781639633116,5913,992,2357,4548,1474,1287,1956,0.21346850108616944,0.34134685010861693
W 15 St & 6 Ave,5989.02,40.738046142482766,-73.99642959237099,6400,9.460748106770833,5770,630,1711,4689,1469,1518,1834,0.22953125,0.26734375
Grand St & Elizabeth St,5382.06,40.718822,-73.99596,5999,11.283348733122187,5396,603,1828,4171,1466,917,1947,0.24437406234372394,0.30471745290881813
N 6 St & Bedford Ave,5379.10,40.71745169,-73.95850939,6824,9.512118190699493,5916,908,2337,4487,1453,1016,2314,0.21292497069167643,0.3424677608440797
S 2 St & Kent Ave,5276.04,40.714731,-73.966612,6540,11.20006382008155,5739,801,1772,4768,1431,1537,2272,0.21880733944954128,0.2709480122324159
Metropolitan Ave & Bedford Ave,5308.04,40.71534825,-73.96024116,6404,11.259994224963565,5466,938,2210,4194,1425,1003,2176,0.22251717676452218,0.34509681449094315
1 Ave & E 68 St,6822.09,40.76500525,-73.95818491,7461,13.280229613992763,6888,573,1283,6178,1422,1536,2476,0.19059107358262967,0.17196086315507306
Washington St & Gansevoort St,6039.06,40.739323,-74.008119,6401,11.962252424100402,5225,1176,1968,4433,1411,1055,2170,0.22043430713950946,0.3074519606311514
Columbus Ave & W 72 St,7175.05,40.7770575,-73.97898475,6051,12.479241053820305,5350,701,1854,4197,1381,1537,1580,0.22822673938192034,0.30639563708477935
Canal St & Rutgers St,5303.08,40.71427487,-73.98990025,6162,10.886350746510873,5323,839,2054,4108,1376,991,1808,0.22330412203829925,0.3333333333333333
5 Ave & E 72 St,7100.07,40.77282817,-73.96685276,4661,18.52161792533791,3009,1652,1453,3208,1374,600,1409,0.29478652649646,0.31173567903883287
6 Ave & W 33 St,6364.07,40.74901271,-73.98848395,8274,11.049794682136813,7191,1083,1746,6528,1364,1687,2664,0.1648537587623882,0.21102248005801305
W 30 St & 10 Ave,6459.07,40.752694,-74.002353,6883,12.040172398179088,6030,853,1600,5283,1358,1587,2287,0.19729768996077293,0.23245677756792096
8 Ave & W 16 St,6072.11,40.740983,-74.001702,6341,8.94665943594596,5858,483,1411,4930,1352,1446,1839,0.21321558113862166,0.2225201072386059
8 Ave & W 38 St,6526.05,40.75461,-73.99177,6446,11.151138840624677,5522,924,1477,4969,1342,1336,1943,0.20819112627986347,0.22913434688178716
Clinton St & Grand St,5303.06,40.71559509,-73.9870295,5746,9.543277984684998,5343,403,1770,3976,1338,1101,1804,0.2328576400974591,0.30804037591367905
1 Ave & E 62 St,6753.08,40.7612274,-73.96094022,6078,11.903232902818909,5490,588,1752,4326,1333,1118,2020,0.21931556433037183,0.2882527147087858
E 1 St & 1 Ave,5593.01,40.72335597960796,-73.98864984512329,6336,9.307376683501683,5473,863,2157,4179,1324,1251,1722,0.20896464646464646,0.3404356060606061
Bergen St & Vanderbilt Ave,4157.10,40.6794388,-73.9680438,5203,10.857020087769875,4606,597,1699,3504,1307,1126,1542,0.251201230059581,0.326542379396502
E 14 St & 1 Ave,5779.10,40.73139303364151,-73.98286700248718,5829,9.41287253674158,5138,691,1906,3923,1296,1238,1473,0.22233659289758106,0.32698576085091785
Hanson Pl & Ashland Pl,4395.07,40.68506807308177,-73.97790759801863,6064,10.329985543095868,5112,952,1697,4367,1284,1211,1824,0.2117414248021108,0.2798482849604222
W 4 St & 7 Ave S,5880.02,40.73401143,-74.00293877,6193,10.807209731417192,5302,891,2152,4041,1275,1113,1798,0.20587760374616504,0.34748910059744875
8 Ave & W 49 St,6747.07,40.76171227910671,-73.98655101656914,6709,10.6718280990709,5922,787,1567,5142,1267,1665,1870,0.18885079743627964,0.23356685049932926
Bleecker St & Crosby St,5679.08,40.72615604980408,-73.99510189890862,5768,10.675745711974109,5114,654,1537,4231,1262,891,1966,0.21879334257975036,0.26647018030513175
Broadway & W 29 St,6289.06,40.7462009,-73.98855723,6506,10.821648119684394,5702,804,1431,5075,1260,1178,2389,0.1936673839532739,0.2199508146326468
5 Ave & E 87 St,7323.09,40.78232260730881,-73.95987510681152,3887,21.909662713317896,2228,1659,1276,2611,1258,498,1020,0.3236429122716748,0.3282737329560072
S 4 St & Wythe Ave,5204.05,40.71285887,-73.96590294,5648,12.26746851687913,4843,805,1803,3845,1242,1385,1664,0.21990084985835695,0.31922804532577903
Amsterdam Ave & W 73 St,7260.09,40.77966809007312,-73.98093044757842,5579,11.512114847344208,5006,573,1648,3931,1242,1267,1560,0.22262054131564796,0.2953934396845313
E 32 St & Park Ave,6280.12,40.7457121,-73.98194829,5528,9.138455767607333,5001,527,942,4586,1239,1803,1218,0.2241316931982634,0.17040520984081042
12 Ave & W 40 St,6765.01,40.76087502,-74.00277668,6018,16.551078046416308,4456,1562,1609,4409,1236,1533,1968,0.2053838484546361,0.2673645729478232
W 22 St & 10 Ave,6306.06,40.74691959,-74.00451887,5630,10.099832918886914,5017,613,1550,4080,1223,1173,1733,0.2172291296625222,0.2753108348134991
Central Park W & W 72 St,7141.07,40.77579376683666,-73.9762057363987,4732,17.818512651451115,3186,1546,1632,3100,1202,864,1276,0.25401521555367707,0.3448858833474218
1 Ave & E 38 St,6230.02,40.746202,-73.971822,5885,10.678408028887,5340,545,1299,4586,1195,1613,1598,0.20305862361937127,0.22073067119796091
Christopher St & Greenwich St,5847.01,40.73291553,-74.00711384,6103,10.71587093505926,5304,799,1774,4329,1182,1759,1554,0.1936752416844175,0.29067671636899883
E 40 St & 5 Ave,6474.11,40.752062307,-73.9816324043,4979,11.534675617593894,4416,563,808,4171,1175,601,1926,0.2359911628841133,0.1622815826471179
W 18 St & 6 Ave,6064.08,40.73971301,-73.99456405,5469,10.111915953556409,4975,494,1152,4317,1175,920,2067,0.21484732126531358,0.2106417992320351
5 Ave & E 30 St,6248.08,40.7459849,-73.98629487,4757,10.558699043514821,4160,597,1004,3753,1169,782,1619,0.24574311540887114,0.21105738911078412
Allen St & Rivington St,5414.06,40.72019576,-73.98997825,5269,11.505191519579933,4409,860,1850,3419,1160,899,1519,0.22015562725374835,0.3511102676029607
E 16 St & 5 Ave,6022.04,40.73726186,-73.99238967,4230,10.517326883372734,3737,493,819,3411,1159,574,1403,0.2739952718676123,0.19361702127659575
W 20 St & 7 Ave,6182.02,40.74238787,-73.99726235,5299,9.1380979618796,4869,430,1516,3783,1159,1117,1631,0.21872051330439707,0.2860917154180034
W 41 St & 8 Ave,6602.03,40.75640548,-73.9900262,6839,11.565464395379442,5988,851,1172,5667,1153,1143,1797,0.16859189940049715,0.17137008334551834
W 34 St & Hudson Blvd E,6535.04,40.75516719072139,-74.00059908628464,4468,11.846690797523127,3881,587,924,3544,1146,755,1204,0.25649059982094896,0.20680393912264997
8 Ave & W 31 St,6450.05,40.7505853470215,-73.9946848154068,7179,11.877291103682037,6199,980,1487,5692,1140,1693,2217,0.15879648976180527,0.20713191252263546
Forsyth St & Grand St,5382.07,40.71779817737835,-73.99316132068634,5018,10.299597638501394,4481,537,1433,3585,1131,720,1618,0.22538860103626943,0.2855719410123555
Orchard St & Grand St,5343.11,40.717318403855785,-73.99067759513855,4975,11.379250536013402,4328,647,1667,3308,1123,934,1487,0.2257286432160804,0.3350753768844221
E 72 St & York Ave,6889.12,40.76663814,-73.95348296,4947,12.323420645509062,4581,366,815,4132,1123,1469,1130,0.2270062664240954,0.16474631089549222
1 Ave & E 18 St,5854.09,40.73381219196632,-73.98054420948029,5845,9.114218269175934,5331,514,1756,4089,1120,1386,1648,0.19161676646706588,0.30042771599657825
W 27 St & 6 Ave,6215.07,40.74526,-73.99062,5490,10.624930209471767,4919,571,1224,4266,1119,1085,2036,0.20382513661202187,0.22295081967213115
Great Jones St,5636.11,40.72743423,-73.99379025,4939,9.926910214618344,4410,529,1353,3586,1117,966,1518,0.22615914152662484,0.2739420935412027
9 Ave & W 22 St,6266.06,40.7454973,-74.00197139,5114,8.897740640073003,4656,458,1598,3516,1107,1211,1395,0.21646460696128275,0.3124755572937036
E 31 St & 3 Ave,6239.08,40.74394314,-73.97966069,5720,9.654911054778555,5122,598,1704,4016,1103,1102,1787,0.19283216783216783,0.29790209790209793
1 Ave & E 6 St,5626.15,40.72633085971696,-73.98616880178452,4888,9.84054915780142,4369,519,1595,3293,1102,1238,1106,0.22545008183306056,0.3263093289689034
E 11 St & 1 Ave,5746.14,40.72953837,-73.98426726,4989,9.610625900314025,4447,542,1599,3390,1100,1350,1239,0.220485067147725,0.3205051112447384
W 70 St & Amsterdam Ave,7207.08,40.77748046,-73.98288594,4950,10.860191973063973,4522,428,1619,3331,1092,966,1412,0.2206060606060606,0.32707070707070707
W 44 St & 11 Ave,6756.05,40.762009,-73.996975,5541,11.171521813150454,5010,531,1297,4244,1083,1940,1311,0.1954520844612886,0.23407327197256814
E 2 St & Ave B,5515.02,40.72217444,-73.98368779,5011,9.642828088205947,4497,514,1523,3488,1083,1416,1281,0.21612452604270604,0.303931351027739
Henry St & Grand St,5294.04,40.714211,-73.981095,5390,9.339515927643784,5029,361,1541,3849,1082,1201,1595,0.20074211502782932,0.285899814471243
Berkeley Pl & 7 Ave,4051.01,40.675146838709786,-73.97523209452629,4107,10.188129096664232,3724,383,1256,2851,1078,765,1255,0.26247869491112735,0.30581933284635987
Broadway & W 53 St,6779.05,40.76344058,-73.98268129,4777,11.281883891563744,4175,602,867,3910,1075,1154,1332,0.2250366338706301,0.18149466192170818
E 27 St & 1 Ave,6004.06,40.739445,-73.976806,4554,10.755224681598595,4194,360,730,3824,1071,1431,882,0.23517786561264822,0.16029863855950813
West End Ave & W 60 St,7059.08,40.77237,-73.99005,5579,12.164283569337396,4922,657,1433,4146,1069,1706,1427,0.19161139989245385,0.2568560673955906
W 27 St & 7 Ave,6257.06,40.74665,-73.99392,4971,10.109347579293233,4445,526,1077,3894,1069,1075,1491,0.21504727419030376,0.21665660832830416
University Pl & E 8 St,5755.14,40.73143724085228,-73.99490341544151,4437,9.88711757568928,3851,586,1140,3297,1068,606,1458,0.24070317782285328,0.25693035835023664
Allen St & Hester St,5343.10,40.71606,-73.99191,4230,11.653545634357762,3661,569,1347,2883,1062,847,1154,0.251063829787234,0.31843971631205675
Lexington Ave & E 24 St,6089.07,40.74025878,-73.98409214,4474,10.18276169721353,3995,479,790,3684,1060,980,1334,0.23692445239159587,0.17657577112203846
West St & Liberty St,5184.08,40.711444,-74.014847,5298,15.164146854158803,4271,1027,1366,3932,1056,976,1976,0.19932049830124576,0.25783314458286144
Cooper Square & Astor Pl,5712.03,40.72951496224949,-73.99075269699097,5277,9.133778580001264,4726,551,1292,3985,1056,906,1806,0.20011370096645822,0.24483608110668942
E 33 St & 5 Ave,6322.01,40.74765947,-73.98490707,4109,11.892539125496878,3503,606,992,3117,1054,524,1344,0.2565100997809686,0.2414212703820881
E 85 St & 3 Ave,7212.05,40.77801203,-73.95407149,4556,11.205506207930934,4060,496,1299,3257,1052,920,1308,0.2309043020193152,0.28511852502194907
2 Ave & E 29 St,6122.09,40.74172351097472,-73.97809267044067,5643,10.335889771988896,4985,658,1589,4054,1049,1224,1704,0.18589402799929117,0.2815878079035974
E 58 St & 3 Ave,6762.02,40.76095756,-73.96724467,4568,11.981539579684764,4175,393,977,3591,1046,862,1295,0.22898423817863398,0.21387915936952714
W 25 St & 9 Ave,6339.06,40.74783260583772,-74.0005722643582,4582,9.326937279935983,4258,324,1297,3285,1042,1018,1316,0.22741161065037102,0.2830641641204714
Lafayette Ave & Ft Greene Pl,4470.09,40.68700231292619,-73.97664964199066,4432,10.691109664560772,3857,575,1457,2975,1041,689,1444,0.2348826714801444,0.32874548736462095
Franklin St & Dupont St,5944.01,40.73564,-73.95866,4956,10.308887937180522,4389,567,1760,3196,1040,995,1556,0.20984665052461662,0.35512510088781274
Gramercy Park N & Gramercy Park E,6013.12,40.73795,-73.98509,4662,9.41090002145002,4247,415,1155,3507,1037,1107,1230,0.22243672243672244,0.24774774774774774
E 39 St & Lexington Ave,6389.09,40.7494985460252,-73.97729203113158,5062,10.766505784933491,4500,562,1037,4025,1034,1299,1423,0.2042670881074674,0.20485973923350453
9 Ave & W 18 St,6190.08,40.74317449,-74.00366443,4650,10.567036150537634,4139,511,1139,3511,1032,980,1271,0.22193548387096773,0.24494623655913977
E 10 St & 2 Ave,5746.02,40.72970805644994,-73.9865979552269,4535,9.824677265711134,3954,581,1559,2976,1021,851,1309,0.22513781697905183,0.3437706725468578
E 7 St & Ave A,5626.07,40.72621788,-73.98379855,5043,9.159529793773547,4463,580,1822,3221,1019,986,1361,0.20206226452508427,0.36129288122149517
E 44 St & Lexington Ave,6464.09,40.752643,-73.974996,4508,10.380594698314109,4072,436,759,3749,1015,964,1277,0.2251552795031056,0.1683673469387755
Broadway & E 19 St,5980.11,40.73829,-73.99006,4930,10.490521365787695,4426,504,1041,3889,1014,501,2117,0.2056795131845842,0.21115618661257607
Pier 40 - Hudson River Park,5696.03,40.7277140777778,-74.01129573583603,5340,14.357871101747815,4037,1303,1722,3618,1013,581,2282,0.18970037453183522,0.32247191011235954
Central Park North & Adam Clayton Powell Blvd,7617.07,40.799484,-73.955613,3208,20.086621628221113,2120,1088,1205,2003,1010,630,745,0.31483790523690774,0.3756234413965087
E 13 St & 2 Ave,5820.08,40.73153937464073,-73.9853024482727,5111,9.887792780277833,4403,708,1769,3342,1002,1054,1471,0.19604774016826454,0.3461162199178243
W 13 St & 7 Ave,6030.04,40.73781509,-73.99994661,4449,9.14865685547314,4006,443,1299,3150,998,915,1342,0.22432007192627557,0.29197572488199597
St Marks Pl & 1 Ave,5626.13,40.72779126,-73.98564945,4819,9.950666580203361,4254,565,1701,3118,997,1040,1310,0.20688939614027807,0.35297779622328285
E 15 St & 3 Ave,5863.07,40.734232,-73.986923,4543,9.089963540978795,4170,373,1166,3377,995,1063,1251,0.2190182698657275,0.2566585956416465
E 24 St & Park Ave S,6131.1,40.74096374,-73.98602213,5055,9.807087286515001,4702,353,942,4113,991,938,1729,0.1960435212660732,0.18635014836795252
7 Ave S & Bleecker St,5805.07,40.73213896287381,-74.00363802909851,4659,11.179744991772198,3868,791,1672,2987,991,852,1252,0.2127065893968663,0.3588752951277098
10 Ave & W 28 St,6459.04,40.75066386,-74.00176802,5229,9.951081067125644,4686,543,1436,3793,990,1346,1370,0.18932874354561102,0.27462229871868427
E 2 St & Ave A,5553.10,40.72307749068673,-73.98583620786667,4608,9.590641030092591,4083,525,1427,3181,989,1199,1076,0.2146267361111111,0.3096788194444444
MacDougal St & Prince St,5687.04,40.72710258,-74.00297088,4502,12.115500107359694,3883,619,1329,3173,986,844,1472,0.2190137716570413,0.2952021323856064
11 Ave & W 27 St,6425.04,40.751396,-74.005226,4848,11.785321527777779,4197,651,1258,3590,986,874,1586,0.2033828382838284,0.2594884488448845
E 77 St & 1 Ave,7020.02,40.77095553869235,-73.95356208096926,5036,11.576213959491659,4570,466,1296,3740,985,1494,1250,0.19559173947577443,0.25734710087370927
N 7 St & Driggs Ave,5340.01,40.716967,-73.956388,7030,9.283880633001422,6191,839,2236,4794,980,968,2706,0.13940256045519203,0.31806543385490754
W 11 St & 6 Ave,5914.03,40.73532427,-73.99800419,4160,10.153408978365384,3670,490,1317,2843,977,751,1265,0.23485576923076923,0.31658653846153845
E 27 St & Park Ave S,6131.13,40.74275179648995,-73.9847157150507,4229,9.82115803184362,3827,402,704,3525,970,982,1268,0.22936864506975643,0.16646961456609127
9 Ave & W 45 St,6717.06,40.76019252,-73.9912551,4613,10.793711713274082,4079,534,1413,3200,970,688,1400,0.2102753089096033,0.3063082592672881
W 63 St & Broadway,7052.01,40.77163851,-73.98261428,3828,12.445880864681296,3357,471,1190,2638,969,731,1048,0.25313479623824453,0.3108672936259143
4 Ave & E 12 St,5788.15,40.732647,-73.99011,4167,9.590728397728181,3710,457,1097,3070,969,800,1292,0.23254139668826493,0.2632589392848572
Schermerhorn St & Court St,4565.07,40.6910363748993,-73.99201065301895,3869,10.602477048332902,3461,408,1075,2794,964,723,1264,0.24915998966141123,0.2778495735332127
Stanton St & Chrystie St,5523.02,40.72229346,-73.99147535,4222,11.080021498499923,3665,557,1382,2840,958,636,1272,0.22690667929891048,0.32733301752723826
Broadway & W 61 St,7014.12,40.77003010255044,-73.9819684624672,3856,13.321688649723374,3284,572,1063,2793,957,690,1192,0.24818464730290457,0.2756742738589212
Fulton St & Adams St,4637.06,40.69241829257847,-73.98949474096298,4024,11.498587396454607,3387,637,903,3121,957,695,1360,0.23782306163021869,0.22440357852882703
Broadway & W 48 St,6708.04,40.76017739537783,-73.98486793041229,5021,12.579865923122885,4075,946,896,4125,956,891,1609,0.1904003186616212,0.17845050786695876
W 13 St & 5 Ave,5947.04,40.735445,-73.99431,3979,10.048577021027059,3553,426,919,3060,954,643,1321,0.23975873335008796,0.23096255340537825
West Drive & Prospect Park West,3651.04,40.6610633719006,-73.97945255041122,4277,12.72657060634401,3353,924,1585,2692,954,482,1513,0.22305354220247836,0.37058685994856205
Amsterdam Ave & W 79 St,7311.02,40.7829391,-73.9786517,4440,12.323566711711711,4006,434,1328,3112,951,1117,1147,0.2141891891891892,0.2990990990990991
W 54 St & 11 Ave,6955.05,40.768333,-73.992573,4841,11.012825287475039,4335,506,989,3852,950,1625,1310,0.19624044618880396,0.2042966329270812
W 37 St & 10 Ave,6611.02,40.75660359,-73.9979009,5250,10.035257,4781,469,1278,3972,948,1167,1682,0.18057142857142858,0.24342857142857144
W 20 St & 5 Ave,6098.02,40.73972989238724,-73.99103969335556,3932,10.424913169718549,3514,418,993,2939,946,449,1493,0.24059003051881994,0.25254323499491355
Calyer St & West St,5676.04,40.72693,-73.95863,4285,10.37434388175807,3631,654,1454,2831,945,1056,1257,0.220536756126021,0.3393232205367561
Suffolk St & Stanton St,5445.02,40.72066442,-73.98517977,4333,11.196299784598814,3770,563,1558,2775,944,964,1117,0.2178629125317332,0.35956612047080544
6 Ave & W 34 St,6364.10,40.74964,-73.98805,4741,11.065924569359488,4029,712,1310,3431,942,968,1429,0.198692259017085,0.2763130141320397
Park Ave & E 42 St,6432.09,40.751873,-73.977706,7411,11.274650107947645,6430,981,1049,6362,941,2031,2522,0.12697341789232222,0.14154635002024019
1 Ave & E 30 St,6079.03,40.74144387,-73.97536082,4084,10.290188238654913,3754,330,722,3362,938,1253,843,0.2296767874632713,0.17678746327130265
W 16 St & The High Line,6233.05,40.74334935,-74.00681753,3802,10.342856216026652,3404,398,897,2905,934,671,1218,0.24566017885323513,0.23592845870594423
Carlton Ave & Dean St,4199.12,40.6809741,-73.9710097,3889,10.97319336161824,3442,447,1188,2701,934,781,1176,0.24016456672666495,0.30547698637181797
W 34 St & 11 Ave,6578.01,40.75594159,-74.0021163,3849,15.387300818394388,3125,724,864,2985,931,561,1473,0.24188100805404,0.2244738893219018
Broadway & Kent Ave,5134.09,40.710888,-73.968329,3991,11.256682218324563,3373,618,1459,2532,930,873,1178,0.23302430468554247,0.3655725382109747
St Marks Pl & 2 Ave,5669.10,40.7284186,-73.98713956,4467,10.379356186105515,3907,560,1365,3102,929,906,1214,0.20796955451085739,0.3055742108797851
River Ter & Warren St,5368.03,40.71759894980997,-74.01587963104248,5045,13.576224162537166,4370,675,1188,3857,925,1326,1705,0.18334985133795836,0.2354806739345887
S 3 St & Bedford Ave,5235.05,40.71260486,-73.96264403,4332,12.342540562480762,3644,688,1612,2720,923,807,1324,0.21306555863342566,0.3721144967682364
Allen St & Stanton St,5484.09,40.722055,-73.989111,4061,11.177906123286547,3383,678,1327,2734,920,710,1098,0.2265451859147993,0.32676680620536813
Columbus Ave & W 59 St,6986.07,40.76931,-73.98464,4002,11.28382325920373,3645,357,1165,2837,915,846,1200,0.22863568215892055,0.29110444777611194
10 Ave & W 14 St,6157.04,40.74198159994023,-74.00831580162048,4498,16.456259400474284,3060,1438,1284,3214,914,310,2058,0.20320142285460205,0.28546020453534904
W 33 St & 10 Ave,6492.04,40.75377336836039,-73.99937599897385,3409,11.071535670284542,3059,350,662,2747,914,389,972,0.2681138163684365,0.19419184511586976
Huron St & Franklin St,5869.04,40.73266,-73.95826,3612,11.358285049833887,3166,446,1379,2233,913,1105,868,0.25276854928017717,0.3817829457364341
2 Ave & E 72 St,6925.09,40.7687620293096,-73.95840793848038,4557,11.533675038402459,4116,441,1114,3443,911,1168,1233,0.19991222295369762,0.24445907395216152
Kenmare St & Elizabeth St,5453.06,40.72054,-73.9949,3932,12.604630582400814,3214,718,1322,2610,910,592,1176,0.23143438453713122,0.33621566632756866
W 53 St & 10 Ave,6890.01,40.76669671,-73.99061728,4307,10.605992620540206,3911,396,1110,3197,904,979,1290,0.20989087531924774,0.2577199907127931
Plaza St East & Flatbush Ave,4010.01,40.673134,-73.969106,3180,14.248983474842767,2526,654,1205,1975,900,355,1082,0.2830188679245283,0.3789308176100629
Central Park W & W 68 St,7079.06,40.7734066,-73.97782542,3965,17.19159703236654,2853,1112,1126,2839,896,762,1112,0.22597730138713745,0.283984867591425
W 56 St & 6 Ave,6809.07,40.76340613,-73.97722479,3712,13.478008961925287,3111,601,997,2715,896,444,1375,0.2413793103448276,0.2685883620689655
W 45 St & 8 Ave,6676.02,40.75929124,-73.98859651,4577,10.953071007209962,3950,627,1231,3346,894,788,1311,0.19532444832859952,0.26895346296700895
Madison Ave & E 26 St,6131.12,40.742684734875695,-73.98671329021454,4112,10.560573775940338,3727,385,772,3340,894,531,1525,0.2174124513618677,0.1877431906614786
E 2 St & Ave C,5476.03,40.7208736,-73.98085795,4156,9.585183176932949,3723,433,1194,2962,892,1240,1029,0.21462945139557266,0.28729547641963427
Central Park W & W 85 St,7354.01,40.78476,-73.969862,3491,14.716470190012414,2698,793,1168,2323,892,696,923,0.25551417931824694,0.3345746204525924
Greenpoint Ave & West St,5752.09,40.729803,-73.959099,3582,12.66651028289596,3013,569,1407,2175,891,633,1150,0.24874371859296482,0.3927973199329983
Driggs Ave & N 9 St,5411.08,40.71816969454208,-73.95520135760307,3828,10.609579950365726,3321,507,1406,2422,884,659,1097,0.2309299895506792,0.3672936259143156
W 67 St & Broadway,7116.04,40.77492513,-73.98266566,4055,11.645200690505549,3692,363,1245,2810,881,703,1241,0.21726263871763254,0.3070283600493218
Bond St & Fulton St,4479.06,40.6896218879,-73.9830426872,3520,12.38068030776515,3030,490,1245,2275,881,511,1104,0.25028409090909093,0.3536931818181818
Schermerhorn St & Hoyt St,4479.10,40.6886263,-73.9851911,4050,10.308992872427984,3568,482,1213,2837,879,863,1326,0.21703703703703703,0.29950617283950615
W 56 St & 8 Ave,6884.03,40.765959181657976,-73.98313522338867,3965,12.317540437158469,3450,515,1054,2911,879,816,1181,0.22168978562421185,0.26582597730138713
W 22 St & 8 Ave,6224.03,40.74475148,-73.99915362,4282,9.399008465670248,3863,419,1221,3061,878,1130,1093,0.2050443717888837,0.28514712751050914
2 Ave & E 31 St,6197.11,40.74299,-73.97711,4550,10.651053128205128,4021,529,1269,3281,877,737,1640,0.19274725274725274,0.2789010989010989
3 St & 7 Ave,3905.15,40.6703837,-73.97839676,3203,10.093442069934436,2891,312,875,2328,869,731,786,0.2713081486106775,0.2731813924445832
Washington Pl & 6 Ave,5838.09,40.73224119,-74.00026394,4069,10.841140616039977,3400,669,1516,2553,864,632,1306,0.21233718358318998,0.3725731137871713
W 12 St & Hudson St,5997.10,40.73752993301071,-74.00558933615685,3748,9.82548776236215,3327,421,1234,2514,864,853,984,0.2305229455709712,0.32924226254002137
India St & Manhattan Ave,5826.02,40.73232194,-73.9550858,3338,11.038047942879967,2819,519,1183,2155,864,863,887,0.25883762732174953,0.35440383463151587
E 20 St & Park Ave,6055.08,40.73827428,-73.98751968,3991,9.603348120771736,3637,354,964,3027,863,696,1329,0.21623653219744424,0.24154347281383112
W 59 St & 10 Ave,7023.04,40.770513,-73.988038,3855,12.255721569390401,3476,379,862,2993,863,1048,1021,0.2238651102464332,0.22360570687418937
6 Ave & Broome St,5610.09,40.72431,-74.00473,4083,11.61340002857376,3639,444,1086,2997,857,466,1623,0.20989468528043106,0.2659808963997061
E 55 St & 2 Ave,6650.07,40.75797322,-73.96603308,3834,11.90350407755173,3445,389,905,2929,857,964,1122,0.2235263432446531,0.23604590505998957
Mercer St & Bleecker St,5679.05,40.72706363348306,-73.99662137031554,4362,9.514301425187222,3869,493,1092,3270,855,685,1442,0.19601100412654746,0.25034387895460797
Hudson St & W 13 St,6115.06,40.74005708567285,-74.0052741765976,3889,11.407462925344989,3319,570,993,2896,852,513,1458,0.21907945487271793,0.25533556184109024
Bedford Ave & Nassau Ave,5550.05,40.72311651,-73.95212324,3806,12.012972792958488,3204,602,1477,2329,851,536,1249,0.22359432475039412,0.3880714661061482
Broadway & W 38 St,6560.15,40.7529728216068,-73.98734897375107,3913,11.118352372433767,3425,488,720,3193,850,731,1264,0.217224635829287,0.18400204446716076
Central Park W & W 76 St,7253.04,40.77896784,-73.97374737,2858,19.51779511896431,1748,1110,1042,1816,848,573,656,0.2967109867039888,0.3645906228131561
6 Ave & W 45 St,6593.15,40.756951,-73.982631,3852,13.276019154551749,3238,614,731,3121,839,310,1578,0.21780893042575286,0.18977154724818276
8 Ave & W 27 St,6297.07,40.747968,-73.996637,3548,10.246202780909432,3198,350,882,2666,839,631,1113,0.23647125140924463,0.24859075535512964
Greenpoint Ave & Manhattan Ave,5785.05,40.73026,-73.95394,3646,10.940446402450174,3138,508,1363,2283,838,693,1035,0.22984092155787164,0.37383433900164564
W 51 St & 6 Ave,6740.10,40.7606597,-73.98042047,3681,11.920893883002806,3237,444,562,3119,829,378,1341,0.2252105406139636,0.15267590328715022
Emerson Pl & Myrtle Ave,4683.02,40.69363137,-73.96223558,3403,13.043690909981388,2860,543,1041,2362,829,820,879,0.2436085806641199,0.30590655304143405
Amsterdam Ave & W 82 St,7360.10,40.78524672,-73.97667321,3828,11.348067885754093,3490,338,1202,2626,829,876,993,0.2165621734587252,0.31400208986415884
7 Ave & Park Pl,4125.07,40.6776147,-73.97324283,3418,9.098192134776673,3033,385,957,2461,828,588,1133,0.2422469280280866,0.2799882972498537
W 20 St & 8 Ave,6224.05,40.74345335,-74.00004031,4096,9.552845080566406,3668,428,1355,2741,820,874,1273,0.2001953125,0.330810546875
Spring St & Hudson St,5653.12,40.72583996792375,-74.0076532959938,3879,11.651657523416688,3307,572,930,2949,819,510,1488,0.2111368909512761,0.2397525135344161
Stanton St & Norfolk St,5445.07,40.720747,-73.986274,4060,11.157025024630542,3427,633,1358,2702,817,736,1161,0.20123152709359607,0.33448275862068966
Hope St & Union Ave,5187.03,40.71167351,-73.95141312,3714,11.695639194040568,3122,592,1486,2228,816,578,1119,0.2197092084006462,0.40010770059235323
Berry St & N 8 St,5379.09,40.7190095,-73.95852515,4321,10.230764495101443,3665,656,1619,2702,816,494,1604,0.18884517472807222,0.3746817866234668
E 47 St & 2 Ave,6498.10,40.75323098,-73.97032517,3975,11.324347341719077,3587,388,724,3251,813,1012,1274,0.20452830188679244,0.18213836477987422
Columbus Ave & W 95 St,7520.07,40.7919557,-73.968087,3644,11.726322900658618,3306,338,1100,2544,812,813,1014,0.22283205268935236,0.3018660812294182
E 53 St & 3 Ave,6617.02,40.75763227739443,-73.96930575370789,3769,11.328416635712392,3279,490,681,3088,810,893,1171,0.2149111170071637,0.1806845317060228
W 15 St & 7 Ave,6030.06,40.73935542,-73.99931783,3730,9.039749329758713,3386,344,1172,2558,806,674,1160,0.2160857908847185,0.31420911528150136
E 56 St & Madison Ave,6732.01,40.761573,-73.972628,2529,11.925107809410834,2266,263,400,2129,806,327,546,0.31870304468169236,0.15816528272044286
E 43 St & Madison Ave,6551.11,40.75354681867074,-73.97896572947502,4983,10.543845183624322,4494,489,556,4427,803,1381,1505,0.16114790286975716,0.11157936985751556
Greenwich Ave & Charles St,5914.08,40.735238,-74.000271,3763,9.66998528656214,3295,468,1267,2496,803,860,1059,0.21339356896093542,0.33669944193462664
5 Ave & E 78 St,7161.08,40.77632142182271,-73.96427392959595,2592,18.76479658564815,1622,970,1012,1580,800,345,676,0.30864197530864196,0.3904320987654321
S 4 St & Roebling St,5195.06,40.710709,-73.959724,3500,11.997873985714286,2912,588,1241,2259,799,804,1017,0.2282857142857143,0.3545714285714286
Ave D & E 3 St,5436.09,40.72082834,-73.97793172,3191,10.293076365820536,2934,257,793,2398,799,1081,543,0.2503917267314322,0.2485114384205578
E 1 St & Bowery,5636.13,40.72486122254819,-73.99213135242462,3388,10.367549414600552,2957,431,1134,2254,796,502,1096,0.23494687131050768,0.3347107438016529
E 16 St & Irving Pl,5938.11,40.735367055605394,-73.98797392845154,3746,9.502890047161415,3380,366,845,2901,796,709,1105,0.21249332621462894,0.22557394554191137
Kent Ave & N 7 St,5489.03,40.72036775298455,-73.96165072917938,3367,12.039961711711712,2762,605,1323,2044,794,588,1130,0.23581823581823583,0.39293139293139295
Clark St & Henry St,4789.03,40.69760127,-73.99344559,3635,9.891127459880789,3219,416,1069,2566,792,812,1049,0.21788170563961484,0.2940852819807428
Pike St & E Broadway,5270.05,40.71406667,-73.99293911,2862,10.596762351502447,2527,335,860,2002,789,536,720,0.27568134171907754,0.3004891684136967
8 Ave & W 24 St,6224.06,40.74591072834279,-73.99807110428809,3563,9.009392066610534,3184,379,1034,2529,787,733,1104,0.2208812798203761,0.2902048835251193
Vesey Pl & River Terrace,5297.02,40.7153379,-74.01658354,5421,13.499850740945705,4829,592,852,4569,786,1259,2239,0.14499169894853348,0.1571665744327615
Forsyth St & Canal St,5270.07,40.7158155,-73.99422366,3303,12.00388709758805,2859,444,952,2351,784,390,1112,0.2373599757795943,0.2882228277323645
Flushing Ave & Vanderbilt Ave,4762.05,40.69795031569544,-73.97077560424805,2875,12.61787184927536,2482,393,740,2135,781,613,846,0.27165217391304347,0.2573913043478261
Grand St & Samuel Dickstein Plaza,5335.07,40.71511871996496,-73.98417055606842,3164,9.98543675726928,2971,193,729,2435,781,1261,487,0.2468394437420986,0.2304045512010114
W 29 St & 9 Ave,6416.06,40.7500727,-73.99839279,3285,10.098231582952817,2999,286,685,2600,780,719,931,0.2374429223744292,0.2085235920852359
E 74 St & 1 Ave,6953.08,40.7689738,-73.95482273,4243,12.552469993715139,3848,395,861,3382,779,1314,1094,0.18359651190195617,0.2029224605232147
Jay St & York St,4895.09,40.70140317257725,-73.98672670125961,3848,11.717424558212059,3282,566,1158,2690,778,702,1416,0.20218295218295218,0.3009355509355509
Rivington St & Ridge St,5406.02,40.71850211,-73.98329859,3728,10.529490097460657,3270,458,1168,2560,777,943,1045,0.2084227467811159,0.3133047210300429
E 5 St & Cooper Sq,5712.12,40.72769,-73.990993,3907,8.89347922958792,3459,448,1147,2760,777,823,1077,0.19887381622728437,0.2935756334783722
W 42 St & 8 Ave,6602.05,40.7575699,-73.99098507,4165,10.471573465386154,3656,509,1032,3133,775,487,1142,0.18607442977190877,0.24777911164465785
E 7 St & Ave B,5584.05,40.7251285241158,-73.98131668567657,3451,9.052119226311214,3052,399,1092,2359,773,945,804,0.22399304549405968,0.31643002028397565
E 53 St & Lexington Ave,6617.09,40.75828065,-73.97069431,3127,11.898178595032512,2819,308,452,2675,771,498,960,0.2465622001918772,0.14454748960665173
Jackson Ave & 49 Ave,6170.09,40.7429302,-73.952037,4016,8.116195235723772,3465,551,1315,2701,771,474,1421,0.1919820717131474,0.3274402390438247
Graham Ave & Conselyea St,5291.05,40.715143,-73.944507,4016,9.66559083250332,3511,505,1276,2740,770,670,1377,0.19173306772908366,0.31772908366533864
W 54 St & 9 Ave,6920.05,40.76604,-73.98737,4146,11.38716796912687,3726,420,1228,2918,770,631,1510,0.18572117703810903,0.2961890979257115
E 6 St & Ave B,5584.04,40.72453734,-73.98185424,3423,9.562937798227676,3099,324,942,2481,769,1301,629,0.22465673385918786,0.2751971954425942
Riverside Blvd & W 67 St,7183.03,40.777507027547976,-73.98888587951659,3882,14.025987648119527,3333,549,1172,2710,767,1166,1121,0.1975785677485832,0.3019062339000515
W 37 St & 5 Ave,6398.06,40.75038009,-73.98338988,3289,11.166510464173507,2868,421,669,2620,766,408,1166,0.23289753724536333,0.2034052903618121
Willoughby Ave & Hall St,4611.03,40.69196035,-73.96536851,3562,11.140744282238442,3208,354,1067,2495,765,1127,896,0.21476698483997755,0.2995508141493543
LaGuardia Pl & W 3 St,5721.14,40.72917025,-73.99810231,4273,10.502472798190187,3794,479,1061,3212,765,654,1308,0.1790311256728294,0.24830329978937515
Centre St & Chambers St,5207.01,40.71273266,-74.0046073,3697,14.258029992786945,2791,906,789,2908,765,628,1255,0.20692453340546388,0.21341628347308628
W 56 St & 10 Ave,6955.01,40.768254,-73.988639,3608,10.954154513118995,3235,373,854,2754,765,1042,960,0.2120288248337029,0.23669623059866962
Bayard St & Baxter St,5351.03,40.71602118,-73.99974372,3234,12.114601680065965,2800,434,1049,2185,765,535,1074,0.23654916512059368,0.3243661100803958
W 26 St & 10 Ave,6382.05,40.749717753,-74.002950346,3089,10.780584763138016,2824,265,650,2439,762,551,964,0.24668177403690514,0.21042408546455163
W 55 St & 6 Ave,6809.09,40.763189,-73.978434,3315,12.282685721468075,2914,401,661,2654,761,358,1245,0.2295625942684766,0.19939668174962294
W 47 St & 10 Ave,6824.07,40.76269882,-73.99301222,4015,10.175854669987546,3596,419,1104,2911,761,786,1222,0.1895392278953923,0.2749688667496887
6 Ave & 9 St,3803.09,40.668127,-73.98377641,3017,9.646701706993703,2767,250,847,2170,760,654,880,0.25190586675505466,0.28074245939675174
E 20 St & FDR Dr,5886.13,40.733208626522426,-73.9756813647,4436,9.836825597385031,4020,416,1058,3378,760,1260,1240,0.17132551848512173,0.23850315599639316
Greenwich St & W Houston St,5730.08,40.728846,-74.008591,4062,12.81992671918595,3449,613,708,3354,756,470,1541,0.1861152141802068,0.17429837518463812
India St Pier,5794.05,40.731734785883454,-73.9612390102593,3243,10.281088780964128,2818,425,1080,2163,754,998,894,0.23250077089115018,0.3330249768732655
W 42 St & 6 Ave,6517.08,40.75492,-73.98455,3658,11.66539256879898,3177,481,554,3104,753,697,1276,0.20585019136139968,0.15144887916894478
Clinton Ave & Myrtle Ave,4651.02,40.693261,-73.968896,3589,11.011942230890686,3107,482,1054,2535,753,882,1030,0.2098077458902201,0.29367511841738647
Market St & Henry St,5270.09,40.71310702305908,-73.99446353316307,3000,10.953020344444443,2596,404,952,2048,751,704,768,0.25033333333333335,0.31733333333333336
Howard St & Lafayette St,5422.04,40.71910537,-73.99973337,3051,11.448838014858516,2604,447,824,2227,750,445,1040,0.24582104228121926,0.2700753851196329
Montague St & Clinton St,4677.06,40.6942715,-73.9923272,2998,10.957953796975763,2726,272,748,2250,748,575,901,0.2494996664442962,0.2494996664442962
8 Ave & W 33 St,6450.12,40.75156757136795,-73.99376901480953,3781,10.57931957154192,3304,477,852,2929,748,680,1105,0.19783126157101297,0.22533721237767787
Centre St & Worth St,5279.03,40.71494807,-74.00234482,2864,13.10340218226257,2404,460,604,2260,744,357,992,0.25977653631284914,0.21089385474860337
Willoughby St & Fleet St,4628.05,40.69196566,-73.9813018,3119,8.805322373624024,2707,412,803,2316,743,620,1002,0.2382173773645399,0.25745431227957677
E 46 St & Madison Ave,6551.16,40.755393,-73.977601,2715,10.04911621853898,2449,266,275,2440,742,350,747,0.2732965009208103,0.10128913443830571
Grand Army Plaza & Plaza St West,4010.15,40.6729679,-73.97087984,2776,13.257448961335253,2295,481,1313,1463,742,451,848,0.2672910662824208,0.4729827089337176
E 26 St & 3 Ave,6089.11,40.74069317733043,-73.98160636425018,3961,10.10674009088614,3550,411,1252,2709,740,645,1322,0.18682150971976774,0.3160817975258773
Vernon Blvd & 50 Ave,6170.02,40.74232744,-73.95411749,3546,7.374917451588645,3264,282,1149,2397,740,441,1271,0.2086858432036097,0.3240270727580372
Clinton St & Joralemon St,4605.04,40.69239502,-73.99337909,3345,10.847032984554062,3077,268,845,2500,739,750,1028,0.22092675635276532,0.2526158445440957
Fulton St & Broadway,5175.08,40.711066,-74.009447,4019,13.426388583395537,3345,674,953,3066,737,609,1454,0.1833789499875591,0.23712366260263748
W 64 St & Thelonious Monk Circle,7123.04,40.77515953434235,-73.98918695747852,3797,11.868346290931438,3403,394,1011,2786,736,1064,1039,0.19383723992625757,0.26626283908348697
Central Park W & W 97 St,7538.18,40.79249519495111,-73.96417066463071,2539,15.275641558356309,1952,587,860,1679,735,495,640,0.28948404883812523,0.3387160299330445
Driggs Ave & S 2 St,5235.10,40.712628,-73.960575,2836,12.295483115890926,2347,489,1028,1808,734,639,777,0.25881523272214385,0.3624823695345557
W 17 St & 7 Ave,6107.08,40.74056423633952,-73.99852573871613,3096,9.642036062661498,2785,311,822,2274,733,562,997,0.23675710594315247,0.2655038759689923
Sullivan St & Washington Sq,5721.01,40.73047747,-73.99906065,3629,10.813784665197023,3063,566,1285,2344,732,538,1140,0.20170845963075226,0.35409203637365666
Meserole Ave & Manhattan Ave,5666.04,40.72708584,-73.95299117,2851,10.802492143107681,2495,356,1025,1826,732,593,796,0.2567520168361978,0.3595229743949491
W 20 St & 10 Ave,6306.01,40.745686,-74.005141,3269,9.45989914346895,2866,403,954,2315,731,680,1026,0.2236157846436219,0.29183236463750384
W 89 St & Columbus Ave,7432.09,40.7882213,-73.97041561,3092,12.356432772746873,2801,291,825,2267,729,910,758,0.23576972833117724,0.2668175937904269
Broadway & W 41 St,6560.01,40.75513557,-73.98658032,3965,10.367300306851618,3464,501,732,3233,729,975,1101,0.18385876418663305,0.18461538461538463
E 4 St & 2 Ave,5593.04,40.7262807,-73.98978041,3858,9.888384054777951,3374,484,1192,2666,724,812,993,0.18766200103680664,0.30896837739761535
Rivington St & Chrystie St,5453.01,40.72110063,-73.9919254,3556,12.401384106674165,3035,521,1106,2450,723,766,899,0.203318335208099,0.3110236220472441
Vesey St & West St,5256.06,40.714063,-74.014432,3928,15.425561278004075,3233,695,842,3086,722,303,1860,0.18380855397148677,0.21435845213849286
Thompson St & Bleecker St,5721.07,40.72840059450829,-73.99968780577183,4113,10.801743188264851,3537,576,1396,2717,722,756,1213,0.17554096766350596,0.33941162168733285
N 12 St & Bedford Ave,5450.04,40.72079821,-73.95484712,3324,11.115260855395107,2799,525,1259,2065,722,484,1066,0.21720818291215402,0.3787605294825511
Washington Pl & Greene St,5755.15,40.72980619180496,-73.99546380915461,3348,9.771651010553564,2986,362,570,2778,721,266,1191,0.21535244922341695,0.17025089605734767
Greenwich St & Perry St,5922.04,40.73498,-74.00697,3385,9.998840019694732,2997,388,1021,2364,719,956,833,0.21240768094534712,0.3016248153618907
11 Ave & W 59 St,7059.01,40.77149671054441,-73.99046033620834,3800,12.69046735526316,3395,405,895,2905,718,1026,1107,0.18894736842105264,0.2355263157894737
E 11 St & 3 Ave,5788.16,40.73127,-73.98849,3888,9.754273632544582,3299,589,1197,2691,716,731,1127,0.18415637860082304,0.30787037037037035
E 61 St & Madison Ave,6801.16,40.764752828526326,-73.97037800510203,2575,13.602271618122977,2185,390,652,1923,716,366,838,0.27805825242718446,0.2532038834951456
Queens Plaza North & Crescent St,6429.01,40.75110165,-73.94073717,3177,13.183986937362292,2662,515,1027,2150,716,499,998,0.22536984576644634,0.32326093799181616
E 22 St & 2 Ave,5971.09,40.73716919369882,-73.98122549057007,4061,9.451156673233195,3682,379,1057,3004,716,961,1242,0.17631125338586556,0.2602807190347205
E 23 St & 1 Ave,5929.01,40.736502,-73.97809472,3553,9.79363572567783,3229,324,746,2807,715,987,914,0.20123839009287925,0.2099634112018013
Grand St & Greene St,5500.02,40.72170005235607,-74.00238141417502,3069,12.217090892798957,2590,479,835,2234,714,309,1195,0.23264907135874877,0.2720755946562398
DeKalb Ave & Vanderbilt Ave,4461.04,40.68940747,-73.96885458,3190,10.579777544409612,2712,478,1281,1909,714,567,943,0.22382445141065832,0.40156739811912223
N 5 St & Wythe Ave,5419.04,40.718389,-73.961501,3189,12.053089965506429,2757,432,1038,2151,713,503,1102,0.2235810598933835,0.3254938852304798
E 11 St & Ave B,5659.11,40.72746420692392,-73.97950418293476,3745,8.803006795727637,3384,361,1100,2645,713,1207,939,0.1903871829105474,0.2937249666221629
Plaza St West & Flatbush Ave,4010.13,40.6750207,-73.97111473,2736,10.86876544834308,2366,370,746,1990,712,554,775,0.260233918128655,0.27266081871345027
E 20 St & 2 Ave,5971.08,40.73587678,-73.98205027,3571,9.288486955101279,3228,343,889,2682,712,1037,955,0.19938392607112854,0.2489498739848782
10 St & 7 Ave,3762.08,40.6662078,-73.98199886,2659,9.788040478876772,2360,299,890,1769,712,508,751,0.26776983828506956,0.334712297856337
MacDougal St & Washington Sq,5797.01,40.73226398,-73.99852205,2838,11.168313982851773,2385,453,827,2011,712,481,852,0.25088090204369273,0.29140239605355883
Lawrence St & Willoughby St,4596.09,40.69236178,-73.98631746,3246,11.390586706715958,2836,410,929,2317,711,446,1084,0.21903881700554528,0.28619839802834257
E 58 St & 1 Ave (NW Corner),6723.10,40.759125,-73.962658,3221,13.206416025043982,2897,324,945,2276,710,614,1113,0.22042843837317602,0.29338714684880474
E 17 St & 2 Ave,5896.01,40.73431166276575,-73.98372530937195,3595,8.698142814093648,3295,300,913,2682,707,1097,835,0.19666203059805284,0.25396383866481226
Fulton St & William St,5137.11,40.70960089363537,-74.00655090808868,3056,12.103907155322862,2671,385,797,2259,703,546,952,0.23003926701570682,0.26079842931937175
E 30 St & Park Ave S,6206.08,40.74444921,-73.98303529,3351,9.769263453695414,3010,341,689,2662,703,818,993,0.20978812294837362,0.20561026559236048
E 6 St & 2 Ave,5669.12,40.72737869323223,-73.98840844631195,3365,9.39742908865775,3003,362,1143,2222,702,824,819,0.2086181277860327,0.3396731054977712
Amity St & Court St,4488.10,40.68841885589487,-73.9931417101234,2566,10.567429410236425,2294,272,859,1707,702,487,782,0.2735775526110678,0.3347622759158223
Adelphi St & Myrtle Ave,4620.02,40.69308257,-73.97178913,3354,10.476083979328166,2950,404,1088,2266,701,791,1008,0.2090041741204532,0.32438878950506855
Nassau Ave & Newell St,5623.03,40.724812564400175,-73.94752621650696,2912,10.502778239468864,2618,294,1106,1806,699,679,854,0.2400412087912088,0.3798076923076923
Bridge St & Front St,4968.03,40.70296934155272,-73.98469090461731,2824,13.386480311614731,2432,392,808,2016,698,480,996,0.2471671388101983,0.28611898016997167
W 52 St & 11 Ave,6926.01,40.76727216,-73.99392888,3250,13.278356071794871,2838,412,846,2404,698,897,917,0.21476923076923077,0.2603076923076923
Lafayette St & Grand St,5422.09,40.72028,-73.99879,3557,11.95302577078062,3056,501,958,2599,694,410,1439,0.19510823727860557,0.26932808546527975
Lenox Ave & W 111 St,7602.05,40.7987859,-73.9523,2786,14.41399482531706,2057,729,875,1911,693,564,688,0.24874371859296482,0.314070351758794
E 14 St & Ave B,5736.09,40.72938685,-73.97772429,3537,9.717307968146264,3193,344,1135,2402,693,826,1072,0.19592875318066158,0.3208934124964659
Lafayette Ave & St James Pl,4494.04,40.68851534,-73.9647628,2951,11.315514977973567,2569,382,965,1986,693,653,831,0.23483564893256523,0.3270077939681464
5 Ave & E 103 St,7511.19,40.7922553,-73.95249933,2647,15.29316689333837,2082,565,596,2051,692,570,659,0.26142803173403856,0.22516055912353608
Amsterdam Ave & W 66 St,7149.05,40.7746671,-73.98470567,3241,11.607015468476808,3012,229,856,2385,687,830,802,0.21197161369947548,0.2641160135760568
Graham Ave & Grand St,5178.06,40.711863,-73.944024,3025,11.745306396694216,2602,423,1030,1995,684,563,859,0.22611570247933885,0.34049586776859503
Monroe St & Bedford Ave,4368.05,40.6851443,-73.95380904,2779,11.103949142377354,2458,321,843,1936,683,594,785,0.24577186038143217,0.3033465275278877
Scholes St & Manhattan Ave,5108.01,40.70870368,-73.9448625,2677,11.661919125887188,2293,384,983,1694,683,532,782,0.25513634665670526,0.3672020918939111
Carroll St & Smith St,4225.14,40.680611,-73.99475825,2745,11.345741147540984,2389,356,846,1899,681,715,662,0.24808743169398906,0.3081967213114754
E 51 St & 1 Ave,6532.06,40.75455731,-73.96592976,3848,11.182465012127512,3432,416,1051,2797,681,857,1236,0.17697505197505198,0.2731288981288981
E 2 St & 2 Ave,5593.02,40.72502876,-73.99069656,2759,10.340630741814667,2469,290,711,2048,681,585,668,0.24682856107285248,0.2577020659659297
W 17 St & 8 Ave,6148.02,40.74177603,-74.00149746,3065,8.632163697661772,2821,244,866,2199,681,621,950,0.22218597063621534,0.28254486133768353
E 12 St & 3 Ave,5788.12,40.73223272,-73.98889957,3033,9.216389158149246,2692,341,893,2140,677,563,960,0.22321134190570394,0.2944279591163864
Broadway & W 56 St,6847.02,40.7652654,-73.98192338,2987,12.082275995982592,2602,385,658,2329,675,717,738,0.22597924338801473,0.22028791429527955
Riverside Dr & W 72 St,7288.04,40.78057799010334,-73.98562431335449,2803,14.952908924961351,2381,422,882,1921,673,667,781,0.24009989297181591,0.3146628612201213
Madison Ave & E 82 St,7188.13,40.7781314,-73.96069399,2396,14.24032106288258,1901,495,725,1671,673,429,595,0.2808848080133556,0.30258764607679467
8 Ave & W 52 St,6816.07,40.76370739,-73.9851615,3318,10.621232695398835,3005,313,804,2514,673,556,1109,0.202833031946956,0.2423146473779385
3 Ave & E 82 St,7154.10,40.775744,-73.9563752,3132,11.609287005108557,2830,302,787,2345,672,890,752,0.21455938697318008,0.2512771392081737
Perry St & Bleecker St,5922.07,40.73535398,-74.00483091,3231,10.40034624987104,2814,417,1080,2151,672,839,836,0.20798514391829154,0.3342618384401114
Little West St & 1 Pl,5001.08,40.70569254,-74.01677685,2802,14.641400648346421,2298,504,894,1908,671,797,646,0.23947180585296218,0.31905781584582443
E 58 St & Madison Ave,6839.04,40.76302594280519,-73.97209525108337,2815,13.662335156897573,2359,456,598,2217,670,221,1100,0.23801065719360567,0.2124333925399645
Lexington Ave & E 36 St,6313.10,40.7475739589548,-73.9788007736206,3458,10.287883810487758,3102,356,920,2538,669,597,1143,0.19346443030653557,0.26604973973395024
Lenox Ave & W 126 St,7720.03,40.808442,-73.9452087,2820,10.76512507683215,2453,367,789,2031,669,375,951,0.2372340425531915,0.2797872340425532
Barrow St & Hudson St,5805.05,40.73172428,-74.00674436,2899,10.826511521214211,2558,341,751,2148,667,752,747,0.2300793377026561,0.2590548464987927
North Moore St & Greenwich St,5470.12,40.72019521437465,-74.0103006362915,4669,10.946647761833368,4283,386,789,3880,666,433,2020,0.14264296423216963,0.16898693510387663
10 Ave & W 34 St,6535.05,40.75476986284269,-73.99914588449698,2279,10.288259265759837,2030,249,361,1918,666,451,466,0.29223343571741994,0.1584028082492321
E 77 St & 3 Ave,7092.06,40.77314236,-73.95856158,3001,10.673975430412085,2713,288,712,2289,664,706,777,0.22125958013995334,0.2372542485838054
E 5 St & Ave A,5626.06,40.72479007746337,-73.98430064320564,3816,8.604280079489866,3345,471,1270,2546,662,867,1048,0.17348008385744235,0.3328092243186583
Kent Ave & Grand St,5388.01,40.716425,-73.96594,3602,11.945601813807144,2945,657,1113,2489,661,606,1422,0.18350916157690172,0.30899500277623543
Broadway & 31 St,6789.08,40.76194,-73.92513,2902,9.672542378819205,2617,285,801,2101,660,530,887,0.22742935906271536,0.2760165403170227
Pleasant Ave & E 116 St,7540.05,40.79499,-73.93333,1988,13.113156203890007,1766,222,506,1482,659,348,466,0.33148893360160964,0.2545271629778672
Division St & Bowery,5311.08,40.71419,-73.99673,3081,11.671468376068377,2773,308,863,2218,659,521,929,0.21389159363842908,0.2801038623823434
E 25 St & 2 Ave,6046.02,40.73912601,-73.97973776,3718,9.727781961628116,3356,362,919,2799,657,822,1128,0.17670790747713824,0.24717590102205486
Roebling St & N 4 St,5267.09,40.71469,-73.95739,2906,11.920984337003901,2443,463,1070,1836,655,390,975,0.22539573296627666,0.3682037164487268
W 44 St & 5 Ave,6551.02,40.75500254,-73.98014437,3039,11.942048009213558,2640,399,568,2471,655,243,1389,0.21553142481079302,0.18690358670615334
Liberty St & Broadway,5105.01,40.70905623,-74.01043382,3305,14.029223832576903,2898,407,575,2730,655,497,1317,0.19818456883509833,0.17397881996974282
E 91 St & 2 Ave,7286.01,40.78115276427915,-73.94963040947914,3091,13.507173207160573,2661,430,875,2216,654,834,781,0.21158201229375606,0.283079909414429
W 47 St & 9 Ave,6786.02,40.76153045158114,-73.99007007479668,3392,10.930454166666665,2986,406,1021,2371,652,795,972,0.19221698113207547,0.30100235849056606
W 36 St & 7 Ave,6483.06,40.752149,-73.989539,2788,12.24593130679101,2307,481,575,2213,650,407,932,0.23314203730272598,0.20624103299856528
Washington Pl & Broadway,5755.01,40.72903917,-73.99404649,2767,10.138290892663536,2460,307,609,2158,648,307,963,0.23418865196964223,0.2200939645825804
E 3 St & 1 Ave,5553.03,40.72467721,-73.98783413,3158,9.775217347477307,2801,357,1018,2140,646,841,810,0.2045598480050665,0.3223559214692844
W 52 St & 5 Ave,6700.01,40.75992262,-73.97648516,2767,12.679440892663534,2343,424,559,2208,646,233,1070,0.23346584748825444,0.2020238525478858
W 50 St & 10 Ave,6890.06,40.76473420006519,-73.99194359779358,3712,10.959707623922414,3319,393,902,2810,645,917,1031,0.17376077586206898,0.2429956896551724
3 St & Prospect Park West,3865.05,40.668132,-73.97363831,2871,12.305636723557413,2392,479,1017,1854,644,596,824,0.2243120863810519,0.3542319749216301
Jay St & Tech Pl,4710.06,40.695065,-73.987167,2577,14.343664299573147,2169,408,512,2065,644,391,774,0.24990298797050833,0.19868063639891345
Fulton St & Waverly Ave,4345.11,40.68323865460341,-73.96599590778351,2927,10.943688554834301,2512,415,971,1956,641,671,862,0.21899555859241543,0.33173898189272294
E 4 St & Ave B,5515.08,40.72334683218016,-73.98265913128853,2823,9.914193304994686,2494,329,974,1849,641,717,646,0.22706340772228126,0.34502302515054906
Norman Ave & Leonard St,5666.11,40.725819,-73.950815,2688,10.899197978670635,2295,393,1000,1688,640,541,756,0.23809523809523808,0.37202380952380953
Perry St & Greenwich Ave,5955.12,40.735918,-74.000939,3047,9.88210154250082,2677,370,1000,2047,640,649,867,0.21004266491631113,0.32819166393173616
Front St & Washington St,4936.01,40.70255088,-73.98940236,2792,13.761315687679083,2293,499,822,1970,640,467,977,0.22922636103151864,0.29441260744985676
W 39 St & 9 Ave,6644.04,40.75645824,-73.99372222,3716,10.293597358270542,3313,403,832,2884,638,622,1133,0.17168998923573736,0.2238966630785791
Adam Clayton Powell Blvd & W 126 St,7738.04,40.80949534777948,-73.94776493310928,2307,12.106463531281607,1974,333,621,1686,635,324,701,0.2752492414390984,0.26918075422626786
3 Ave & E 62 St,6830.04,40.76313,-73.96527,2703,12.166666321371315,2372,331,746,1957,635,511,841,0.23492415834258232,0.27598964113947466
Parkside Ave & Ocean Ave,3448.02,40.65485,-73.96217,2313,14.911886792044964,1741,572,907,1406,633,387,701,0.27367055771725035,0.3921314310419369
W 30 St & 8 Ave,6373.07,40.74964702898657,-73.99506707345266,3081,10.733794617548414,2776,305,721,2360,633,652,940,0.20545277507302823,0.23401493021746186
E 53 St & Madison Ave,6659.03,40.7597108,-73.97402311,2322,12.204742291128337,2074,248,335,1987,631,228,687,0.27174849267872525,0.1442721791559001
E 48 St & 5 Ave,6626.01,40.75724567911726,-73.97805914282799,3280,11.239565863821138,2925,355,442,2838,628,435,1279,0.19146341463414634,0.13475609756097562
Barclay St & Church St,5216.04,40.71291224,-74.01020234,3540,12.10824072975518,3190,350,561,2979,627,823,1126,0.17711864406779662,0.15847457627118644
E 76 St & Park Ave,7128.08,40.773763,-73.96222088,2583,12.877714317976512,2256,327,617,1966,625,591,599,0.24196670538133952,0.23886953155245838
Montrose Ave & Bushwick Ave,5068.02,40.70767788,-73.94016171,2959,12.214164329165257,2458,501,1130,1829,625,440,851,0.2112200067590402,0.3818857722203447
Atlantic Ave & Fort Greene Pl,4354.07,40.68382604,-73.97632328,2832,11.736240124764596,2321,511,953,1879,624,371,930,0.22033898305084745,0.3365112994350282
N 5 St & Northside Piers,5458.02,40.719876,-73.963865,2748,11.673600994662785,2343,405,872,1876,622,615,837,0.22634643377001457,0.3173216885007278
Atlantic Ave & Furman St,4614.04,40.69165183,-73.9999786,2625,13.04380186031746,2152,473,926,1699,621,424,917,0.23657142857142857,0.3527619047619048
St James Pl & Oliver St,5238.05,40.71307916,-73.99851193,2667,10.74486866016748,2356,311,718,1949,621,566,772,0.23284589426321708,0.26921634795650545
E 48 St & 3 Ave,6541.03,40.7546011026,-73.971878855,3492,11.633236774532264,3074,418,572,2920,621,578,1428,0.17783505154639176,0.16380297823596793
W 84 St & Columbus Ave,7382.04,40.78499979,-73.97283406,2717,11.817072586185745,2436,281,828,1889,621,622,764,0.22856091277143908,0.30474788369525213
E 47 St & Park Ave,6584.12,40.75510267,-73.97498696,4578,11.276880493665356,4242,336,313,4265,616,839,1950,0.1345565749235474,0.06837046745303627
E 68 St & 3 Ave,6896.16,40.76712840349542,-73.96224617958069,2554,11.263916366483945,2278,276,632,1922,615,551,720,0.2407987470634299,0.24745497259201252
E 35 St & Madison Ave,6398.08,40.74848023448579,-73.98255586624146,2893,10.814943778085032,2541,352,570,2323,612,662,840,0.2115451088835119,0.19702730729346699
E 19 St & 3 Ave,5938.01,40.73624527,-73.98473765,2890,8.80392699538639,2601,289,888,2002,611,484,810,0.21141868512110726,0.30726643598615916
E 54 St & 1 Ave,6608.09,40.756265,-73.964179,3316,11.673637158222759,2914,402,855,2461,611,720,1048,0.18425814234016888,0.25784077201447525
Bank St & Washington St,5964.01,40.7361967,-74.00859207,2460,10.715480379403793,2192,268,745,1715,610,608,679,0.24796747967479674,0.30284552845528456
W 35 St & 8 Ave,6526.01,40.752762088742045,-73.99280458705107,2803,11.549002188131764,2400,403,609,2194,610,477,934,0.21762397431323582,0.21726721369960755
E 91 St & Park Ave,7344.05,40.7835016,-73.955327,2603,14.173340728646433,2282,321,586,2017,608,612,636,0.23357664233576642,0.22512485593545908
Broadway & Berry St,5164.05,40.71036129922581,-73.96530389785767,3032,11.643012329595425,2596,436,1060,1972,607,791,829,0.20019788918205805,0.3496042216358839
W Broadway & Spring St,5569.06,40.72494672359416,-74.00165855884552,2962,11.760925540175556,2503,459,799,2163,607,338,1197,0.2049291019581364,0.2697501688048616
46 Ave & 5 St,6286.02,40.74731,-73.95451,2776,9.523736929634966,2478,298,921,1855,606,781,765,0.21829971181556196,0.33177233429394815
DeKalb Ave & S Portland Ave,4546.06,40.68967018552252,-73.97527355121376,2185,11.608353196033562,1896,289,855,1330,605,520,513,0.2768878718535469,0.391304347826087
Lispenard St & Broadway,5391.06,40.71939226,-74.00247214,2998,11.78371693907049,2556,442,728,2270,605,427,1136,0.20180120080053368,0.2428285523682455
44 Dr & Jackson Ave,6352.01,40.74718234,-73.9432635,2554,12.545494655442443,2160,394,866,1688,604,413,782,0.2364917776037588,0.33907595927956147
Hudson St & Reade St,5359.10,40.71625008,-74.0091059,2834,11.519339149611856,2466,368,734,2100,603,597,863,0.21277346506704306,0.2589978828510939
Metropolitan Ave & Meeker Ave,5300.05,40.71413311,-73.95234386,3222,11.630698768880611,2592,630,1267,1955,603,447,897,0.1871508379888268,0.3932340161390441
Walker St & Baxter St,5351.07,40.717411,-73.999573,2611,11.524489333588663,2347,264,588,2023,601,411,858,0.23018000765990043,0.225201072386059
Greene St & Prince St,5602.06,40.72511734422387,-73.99930492043495,2513,12.317691570500067,2131,382,792,1721,601,211,952,0.23915638678869877,0.31516116195781935
Bergen St & Flatbush Ave,4281.08,40.680944723477296,-73.97567331790923,2577,11.993054242659424,2255,322,995,1582,600,399,810,0.23282887077997672,0.38610787737679475
E 15 St & 5 Ave,5947.06,40.736592,-73.992949,2465,9.116050087897229,2241,224,530,1935,600,490,714,0.2434077079107505,0.2150101419878296
W 100 St & Broadway,7580.01,40.7973721,-73.97041192,3065,12.326136112017402,2770,295,866,2199,598,765,887,0.19510603588907013,0.28254486133768353
E 9 St & Ave C,5616.01,40.72521311,-73.97768752,3081,9.886559612679866,2814,267,977,2104,597,800,766,0.1937682570593963,0.3171048360921779
E 63 St & 3 Ave,6830.02,40.763954,-73.9646,2762,11.061371946657012,2434,328,754,2008,595,667,766,0.21542360608254887,0.27299058653149894
S 5 Pl & S 5 St,5125.03,40.710451,-73.960876,2583,15.023144999354756,1979,604,1018,1565,594,515,793,0.22996515679442509,0.39411536972512584
Stanton St & Mangin St,5326.06,40.71782143,-73.97628939,1832,11.44897315320233,1629,203,528,1304,594,504,235,0.324235807860262,0.28820960698689957
Cathedral Pkwy & Broadway,7680.03,40.804213,-73.96699104,2828,12.703065205091939,2455,373,840,1988,593,409,912,0.20968882602545968,0.297029702970297
W 82 St & Central Park W,7304.08,40.78275,-73.97137,2227,15.403337389612332,1711,516,724,1503,593,508,527,0.2662775033677593,0.325101032779524
Frederick Douglass Blvd & W 112 St,7631.23,40.801694,-73.957145,2717,12.35902795975954,2406,311,815,1902,592,756,661,0.21788737578211262,0.2999631947000368
King St & Varick St,5687.11,40.72789701409023,-74.00536268949507,3200,11.824185552083334,2812,388,630,2570,592,460,1170,0.185,0.196875
2 Ave & E 96 St,7338.02,40.7839636,-73.9471673,2239,11.40090587315766,1991,248,572,1667,592,389,538,0.26440375167485486,0.2554711924966503
E 7 St & Ave C,5545.01,40.72412944090093,-73.97901266813278,3845,9.432613775465972,3498,347,1141,2704,590,794,1148,0.15344603381014305,0.2967490247074122
Washington Ave & Park Ave,4724.03,40.69610226,-73.96751037,2580,13.117540981912144,2226,354,648,1932,588,727,674,0.22790697674418606,0.25116279069767444
W 76 St & Columbus Ave,7281.09,40.7801839724239,-73.97728532552719,2594,13.51664487920843,2235,359,855,1739,587,706,589,0.22629144178874325,0.32960678488820355
Montague St & Hicks St,4718.11,40.69522407512035,-73.99598850939152,2461,11.924277238250033,2144,317,746,1715,587,599,704,0.2385209264526615,0.30312880942706216
E 72 St & Park Ave,6998.08,40.77118287540658,-73.96409422159195,2487,12.321986978957245,2092,395,621,1866,586,522,758,0.23562525130679535,0.24969843184559712
Grand St & Havemeyer St,5267.08,40.71286844,-73.95698119,3198,12.440842771523869,2700,498,1252,1946,585,528,1004,0.18292682926829268,0.391494684177611
W 49 St & 8 Ave,6747.06,40.76227205,-73.98788205,2793,10.855816696503162,2518,275,745,2048,585,658,819,0.20945220193340494,0.26673827425707125
Prospect Park West & 8 St,3722.04,40.66514681533792,-73.97637605667114,2257,12.142469982277358,1823,434,817,1440,584,354,664,0.25875055383252105,0.36198493575542756
5 Ave & E 63 St,6904.06,40.766368,-73.971518,1845,23.25326303523035,1062,783,552,1293,584,238,542,0.3165311653116531,0.2991869918699187
E 40 St & Park Ave,6432.11,40.750756,-73.978326,2902,12.400420945325063,2610,292,394,2508,584,365,1241,0.20124052377670573,0.1357684355616816
Underhill Ave & Pacific St,4231.04,40.6804836,-73.9646795,2292,11.38079331733566,1975,317,928,1364,583,430,636,0.2543630017452007,0.4048865619546248
Morton St & Greenwich St,5772.05,40.731135726910246,-74.00815155572697,2703,10.26604969170058,2371,332,505,2198,582,757,823,0.2153163152053274,0.18682944876063634
Driggs Ave & N Henry St,5542.04,40.72325,-73.94308,2722,9.940916868723978,2409,313,797,1925,581,848,726,0.21344599559147687,0.292799412196914
Eastern Pkwy & Franklin Ave (NE Corner),3919.07,40.6707767,-73.9576801,2383,10.82191444257938,2025,358,625,1758,580,490,635,0.2433906840117499,0.2622744439781788
E 80 St & 2 Ave,7121.02,40.77391390238118,-73.9543953537941,2702,12.988554755736493,2442,260,844,1858,580,776,684,0.2146558105107328,0.31236121391561805
E 10 St & 5 Ave,5872.08,40.73331967,-73.99510132,2855,10.214490379451254,2459,396,781,2074,579,616,906,0.20280210157618214,0.2735551663747811
E 56 St & 3 Ave,6691.11,40.75934501,-73.96759673,3122,13.12267020072603,2845,277,497,2625,578,562,1095,0.185137732222934,0.1591928251121076
E 88 St & 1 Ave,7235.13,40.778301,-73.9488134,2749,12.474433102946525,2468,281,791,1958,576,701,651,0.2095307384503456,0.2877409967260822
Underhill Ave & Lincoln Pl,4042.08,40.6740123,-73.9671457,2331,11.75436414986415,2063,268,899,1432,575,495,664,0.24667524667524668,0.38567138567138565
Watts St & Greenwich St,5578.02,40.72405549,-74.00965965,2796,12.152727145922746,2364,432,728,2068,574,437,1034,0.20529327610872675,0.2603719599427754
Eagle St & Manhattan Ave,5902.07,40.735217,-73.954926,2688,9.349942429315476,2352,336,1027,1661,574,772,651,0.21354166666666666,0.3820684523809524
Gansevoort St & Hudson St,6072.16,40.73937600789778,-74.00520807425661,3027,10.804830596850566,2572,455,746,2281,571,691,972,0.1886356128179716,0.24644862900561612
Bergen St & Smith St,4446.01,40.6867443,-73.99063168,2520,10.558299880952381,2211,309,726,1794,568,393,801,0.2253968253968254,0.28809523809523807
Warren St & W Broadway,5288.09,40.71473993,-74.00910627,2825,12.12012430678466,2509,316,729,2096,568,408,1146,0.20106194690265486,0.25805309734513276
Union Ave & N 12 St,5411.07,40.71924,-73.95242,2538,11.879055988967691,2199,339,867,1671,567,450,856,0.22340425531914893,0.3416075650118203
Forsyth St & Broome St,5453.05,40.71893904,-73.99266288,2530,11.753367430830039,2093,437,753,1777,563,451,665,0.2225296442687747,0.2976284584980237
Washington St & W 10 St,5847.09,40.7333,-74.00858,2607,11.413313208029663,2236,371,799,1808,562,726,721,0.2155734560797852,0.3064825469888761
5 Ave & 3 St,3987.06,40.6728155,-73.98352355,2357,10.183085744590581,2062,295,811,1546,562,468,701,0.2384386932541366,0.3440814594823929
E 84 St & 1 Ave,7180.02,40.77565541,-73.95068615,2594,11.593376252891288,2345,249,813,1781,562,652,622,0.2166538164996145,0.31341557440246726
St Nicholas Ave & Manhattan Ave,7723.01,40.809725,-73.953149,2558,10.60978173703414,2271,287,693,1865,561,469,707,0.21931196247068022,0.2709147771696638
DeKalb Ave & Hudson Ave,4513.06,40.689888,-73.981013,2611,10.865470158304609,2233,378,749,1862,560,430,744,0.21447721179624665,0.2868632707774799
Kent Ave & Division Ave,5021.05,40.706563674670925,-73.9683187007904,2316,12.325222833909038,1934,382,815,1501,560,532,689,0.24179620034542315,0.35189982728842834
Cliff St & Fulton St,5065.14,40.70838,-74.00495,2598,12.781438439825505,2226,372,716,1882,560,555,785,0.2155504234026174,0.27559661277906083
1 Ave & E 42 St,6303.02,40.7487575,-73.970127,2602,11.42044817448117,2327,275,596,2006,559,843,710,0.2148347425057648,0.22905457340507301
Leonard St & Nassau Ave,5550.09,40.7239567849954,-73.94984364509583,2588,10.048644474497682,2303,285,862,1726,559,489,764,0.2159969088098918,0.3330757341576507
Lincoln Rd & Ocean Ave,3633.08,40.6605,-73.9626,2040,13.069446854575164,1614,426,764,1276,557,332,604,0.2730392156862745,0.37450980392156863
E 84 St & Park Ave,7243.04,40.77862688,-73.95772073,2375,13.216333831578948,2089,286,614,1761,555,618,559,0.2336842105263158,0.25852631578947366
W 50 St & 9 Ave,6854.05,40.76360467795863,-73.98917958140373,3187,10.391105951260327,2887,300,943,2244,555,539,993,0.1741449639159084,0.29588955130216504
6 St & 7 Ave,3834.10,40.6686627,-73.97988067,2145,10.072343651903653,1955,190,597,1548,555,578,508,0.25874125874125875,0.2783216783216783
W 25 St & 6 Ave,6215.04,40.74395411,-73.99144871,2438,10.697873003828274,2146,292,583,1855,554,394,830,0.22723543888433143,0.2391304347826087
Eastern Pkwy & Kingston Ave,3902.06,40.66959,-73.94237,2196,11.541900827261689,2005,191,493,1703,554,373,483,0.2522768670309654,0.22449908925318762
Nassau Ave & Russell St,5581.01,40.72557,-73.94434,2660,10.612219993734337,2338,322,927,1733,554,711,685,0.20827067669172933,0.34849624060150375
7 Ave & W 55 St,6847.05,40.764126,-73.980973,2680,12.685761473880598,2261,419,463,2217,553,505,857,0.20634328358208956,0.17276119402985074
S 4 St & Rodney St,5156.05,40.70934,-73.95608,2577,10.489885370585952,2196,381,838,1739,553,554,794,0.2145906092355452,0.32518432285603416
State St & Smith St,4522.07,40.68917,-73.9886,2450,11.679449972789115,2117,333,685,1765,553,492,689,0.2257142857142857,0.2795918367346939
W 42 St & Dyer Ave,6644.07,40.75898481399634,-73.99379968643188,2536,10.79293820977918,2198,338,802,1734,549,476,648,0.21648264984227128,0.31624605678233436
South End Ave & Albany St,5114.08,40.709957,-74.016538,2705,12.295395674676524,2410,295,753,1952,549,852,790,0.20295748613678374,0.27837338262476896
Halsey St & Tompkins Ave,4319.07,40.6823687,-73.944118,2313,12.886781812941345,1863,450,833,1480,549,439,703,0.23735408560311283,0.3601383484651967
Water St & Fletcher St,5024.10,40.706410755236135,-74.00559738278389,2243,13.855255468866101,1858,385,663,1580,548,316,817,0.24431564868479716,0.29558626839054836
Carroll St & 5 Ave,4060.09,40.6751622,-73.9814832,2326,10.449152163943824,2101,225,766,1560,547,410,663,0.2351676698194325,0.32932072226999143
14 St & 7 Ave,3731.11,40.663779,-73.98396846,2222,9.762110178517851,1945,277,757,1465,546,374,691,0.24572457245724572,0.3406840684068407
E 89 St & 3 Ave,7265.10,40.7806284,-73.9521667,2511,11.980693588211867,2212,299,761,1750,543,571,644,0.2162485065710872,0.3030665073675826
Murray St & Greenwich St,5288.12,40.71485150526251,-74.01122331619263,2477,13.40692996232001,2137,340,575,1902,542,280,991,0.2188130803391199,0.23213564796124345
Rutgers St & Henry St,5230.02,40.71332151208186,-73.99009689688683,2233,9.811027392148082,1983,250,697,1536,540,596,553,0.24182713837886252,0.3121361397223466
E 88 St & Park Ave,7293.10,40.781410700190015,-73.95595908164978,2247,12.530438228749444,1964,283,524,1723,539,490,560,0.2398753894080997,0.23319982198486872
W 116 St & Amsterdam Ave,7692.11,40.8067581,-73.9607082,2078,13.084410771575232,1784,294,345,1733,538,291,614,0.25890279114533205,0.1660250240615977
E 81 St & York Ave,7084.12,40.7728384,-73.94989233,2694,11.82832230264786,2474,220,732,1962,537,754,646,0.19933184855233854,0.2717149220489978
E 5 St & Ave C,5545.04,40.72299208,-73.97995466,2581,9.815894659692626,2378,203,781,1800,535,810,595,0.20728399845021309,0.3025958930647036
Douglass St & 4 Ave,4175.14,40.6792788,-73.98154004,2182,11.567086908035442,1919,263,647,1535,533,524,568,0.24427131072410632,0.29651695692025665
W Broadway & Watts St,5569.07,40.72323,-74.00314,2690,12.028882112763322,2243,447,805,1885,529,250,1124,0.19665427509293681,0.2992565055762082
Bank St & Hudson St,5922.08,40.73652889,-74.00618026,2252,9.813315156897573,2007,245,755,1497,528,501,566,0.2344582593250444,0.3352575488454707
Lexington Ave & E 29 St,6164.09,40.74311555376486,-73.98215353488922,2423,9.652608419314898,2192,231,649,1774,528,505,772,0.21791167973586464,0.26784977300866697
Columbia St & Rivington St,5365.02,40.71739973,-73.98016555,2261,10.000763762347045,2055,206,608,1653,527,701,433,0.23308270676691728,0.2689075630252101
14 St & 5 Ave,3771.06,40.666287,-73.98895053,2261,10.651534756007667,2055,206,651,1610,525,453,666,0.23219814241486067,0.28792569659442724
E 43 St & 2 Ave,6422.08,40.75022392,-73.97121414,2241,12.32249347761416,2038,203,482,1759,523,542,649,0.23337795626952254,0.21508255243195
W 36 St & 9 Ave,6569.07,40.75462324029105,-73.99516761302948,2488,10.405089355573418,2209,279,626,1862,521,516,763,0.20940514469453375,0.2516077170418006
N 10 St & Berry St,5450.01,40.720253,-73.957082,2766,11.457134255242227,2338,428,990,1776,518,369,940,0.18727404193781635,0.3579175704989154
Kingsland Ave & Nassau Ave,5613.04,40.72577,-73.94173,2583,9.989859827074461,2376,207,637,1946,516,794,712,0.1997677119628339,0.24661246612466126
Main St & Plymouth St,4936.21,40.70378167354831,-73.99073392152786,2046,17.82306880091235,1357,689,668,1378,515,228,667,0.2517106549364614,0.32649071358748777
Steinway St & Broadway,6711.13,40.75905795418586,-73.91897544264793,2321,8.572921786586242,2007,314,791,1530,514,278,685,0.2214562688496338,0.34080137871607064
St Nicholas Ave & W 126 St,7756.10,40.8114323,-73.9518776,2484,10.017750993022007,2178,306,675,1809,512,433,706,0.20611916264090177,0.2717391304347826
Park Ave & E 41 St,6432.08,40.751581,-73.97791,3087,11.898168075801749,2723,364,613,2474,511,662,1184,0.1655328798185941,0.19857466796242307
Nevins St & Schermerhorn St,4437.09,40.68737247650719,-73.98176059126854,2050,10.816611325203253,1836,214,631,1419,511,450,650,0.24926829268292683,0.3078048780487805
W 92 St & Broadway,7502.01,40.7921,-73.9739,2399,11.497666652771988,2194,205,693,1706,511,620,688,0.2130054189245519,0.2888703626511046
W 95 St & Broadway,7541.01,40.7937704,-73.971888,2494,11.445549899759422,2206,288,775,1719,509,534,648,0.2040898155573376,0.3107457898957498
Henry St & Atlantic Ave,4531.05,40.69089272,-73.99612349,2361,11.39078429337851,2044,317,771,1590,506,509,643,0.2143159678102499,0.32655654383735705
Hancock St & Bedford Ave,4255.05,40.68216564,-73.95399026,1785,11.7362385340803,1481,304,658,1127,506,298,475,0.2834733893557423,0.3686274509803922
W 20 St & 11 Ave,6306.07,40.746745,-74.007756,3401,11.172789071841615,3008,393,870,2531,503,600,1289,0.1478976771537783,0.25580711555424873
Devoe St & Lorimer St,5259.06,40.71335226222875,-73.9491033554077,2599,10.645067096319098,2192,407,926,1673,502,375,751,0.19315121200461716,0.3562908811081185
Spruce St & Nassau St,5137.10,40.71146364,-74.00552427,2536,13.483611704784437,2087,449,645,1891,502,472,853,0.19794952681388012,0.25433753943217663
Milton St & Franklin St,5752.07,40.72906,-73.95779,1959,12.36820440701038,1698,261,624,1335,501,366,586,0.2557427258805513,0.31852986217457885
E 68 St & Madison Ave,6932.15,40.7691572,-73.96703464,1802,13.932343562708102,1513,289,414,1388,500,207,536,0.27746947835738067,0.2297447280799112
Ash St & Manhattan Ave,6019.04,40.738095,-73.954867,2237,10.453951400685442,1931,306,687,1550,500,698,595,0.22351363433169424,0.30710773357174787
Bayard St & Leonard St,5442.05,40.71915571696044,-73.94885390996933,2234,9.987908601909878,1968,266,613,1621,499,464,768,0.2233661593554163,0.27439570277529096
Wyckoff Ave & Gates Ave,4847.03,40.699871408829885,-73.91171872615814,2171,8.602054729003532,1833,338,576,1595,498,243,697,0.22938737908797788,0.26531552280055276
E 94 St & Madison Ave,7344.01,40.78585105291389,-73.95482444378061,1985,14.591802409739714,1758,227,421,1564,497,484,466,0.2503778337531486,0.21209068010075566
W 78 St & Broadway,7311.07,40.78339981,-73.98093133,2253,12.39726190264832,1995,258,756,1497,496,561,609,0.2201509098979139,0.3355525965379494
Clinton St & Tillary St,4748.07,40.69623297129315,-73.99142056703568,2109,13.02014054054054,1829,280,531,1578,495,530,553,0.23470839260312945,0.25177809388335703
FDR Drive & E 35 St,6230.04,40.744219,-73.97121214,3616,12.250775668325959,3100,516,681,2935,495,1024,1189,0.136891592920354,0.1883296460176991
Sterling Pl & Franklin Ave,4033.16,40.67324785,-73.95689517,2334,11.543044837189374,1976,358,903,1431,495,345,759,0.2120822622107969,0.38688946015424164
Frederick Douglass Blvd & W 117 St,7688.12,40.805159,-73.954692,2295,11.609289535221496,2064,231,704,1591,493,498,656,0.21481481481481482,0.3067538126361656
Broadway & Roebling St,5125.07,40.70924826276157,-73.96063148975372,2289,10.894842937236056,1912,377,656,1633,492,474,676,0.21494102228047182,0.28658802970729574
Mercer St & Spring St,5532.01,40.72362738,-73.99949601,2437,13.165451285733827,1963,474,740,1697,491,166,1078,0.20147722609766106,0.3036520311858843
W 87 St & West End Ave,7484.05,40.789622,-73.97757,2393,12.752422934949157,2170,223,720,1673,490,603,602,0.20476389469285416,0.30087755954868367
S Portland Ave & Hanson Pl,4354.05,40.68539567,-73.97431458,2057,10.915689839572194,1778,279,654,1403,490,373,658,0.23821098687408848,0.3179387457462324
Driggs Ave & Lorimer St,5481.04,40.72179134,-73.9504154,2259,11.071837376420245,1917,342,840,1419,490,414,707,0.21691013722886232,0.37184594953519257
Park Pl & Church St,5288.08,40.71334184275907,-74.00935515761375,2533,12.9783719436768,2236,297,526,2007,489,412,973,0.1930517173312278,0.20765890248716937
E 51 St & Lexington Ave,6659.01,40.75714758,-73.97207836,2479,11.257771029985209,2155,324,423,2056,489,358,942,0.1972569584509883,0.17063331988705124
6 Ave & Walker St,5430.10,40.7197920901383,-74.0052238852195,2419,11.805913876257407,2116,303,658,1761,489,374,823,0.2021496486151302,0.27201322860686233
E 65 St & 2 Ave,6860.12,40.76471851944339,-73.96222069859505,2512,12.035124628450106,2250,262,561,1951,488,660,701,0.1942675159235669,0.223328025477707
Park Circle & East Dr,3344.02,40.651566,-73.972212,1823,14.68966318339733,1419,404,691,1132,487,304,539,0.2671420735052112,0.37904552934722985
3 Ave & E 72 St,7028.04,40.7699426,-73.96060712,2163,11.57366897827092,1856,307,621,1542,486,470,588,0.22468793342579751,0.2871012482662968
W 87 St & Amsterdam Ave,7458.03,40.78839,-73.9747,2304,12.909317057291666,2080,224,696,1608,485,611,568,0.2105034722222222,0.3020833333333333
Bialystoker Pl & Delancey St,5335.03,40.71622644,-73.98261206,1973,11.071035783071466,1807,166,613,1360,485,564,510,0.24581855043081602,0.31069437404967054
Broadway & Morris St,5033.01,40.705945132708806,-74.01321887969969,2242,16.153168220338983,1873,369,474,1768,485,318,777,0.21632471008028545,0.21141837644959857
W 35 St & 9 Ave,6569.09,40.75414519263519,-73.9960889518261,2357,10.788463838212417,2173,184,361,1996,484,737,640,0.20534577853203226,0.15316079762409843
Park Ave & E 124 St,7682.01,40.8045555,-73.9396861,3496,11.26533882532418,3171,325,640,2856,483,994,999,0.13815789473684212,0.18306636155606407
E 97 St & Madison Ave,7393.09,40.787801,-73.953559,2110,15.302955955766194,1797,313,514,1596,483,432,574,0.22890995260663508,0.24360189573459715
Lexington Ave & E 26 St,6089.08,40.741459,-73.983293,2242,9.905004110912875,2001,241,542,1700,483,468,647,0.21543264942016058,0.24174843889384479
Pacific St & Smith St,4446.03,40.687880939612775,-73.98939281702042,1944,11.443036085390945,1721,223,620,1324,483,404,600,0.24845679012345678,0.31893004115226337
Stagg St & Union Ave,5117.05,40.70877084,-73.95095259,2236,11.719319066785927,1862,374,857,1379,482,462,685,0.21556350626118068,0.3832737030411449
E 44 St & 2 Ave,6422.09,40.75118387463277,-73.97138714790344,2507,11.090898883127243,2232,275,613,1894,481,633,732,0.19186278420422817,0.2445153570003989
Cumberland St & Lafayette Ave,4428.02,40.68753406,-73.97265183,2057,10.837101393615297,1811,246,680,1377,481,414,568,0.233835683033544,0.3305785123966942
W 52 St & 6 Ave,6740.01,40.76132983124814,-73.97982001304626,2384,12.948354907718121,2120,264,416,1968,481,196,1046,0.20176174496644295,0.174496644295302
Washington Park,4546.05,40.6917823,-73.9737299,1939,11.31248885164174,1661,278,726,1213,480,456,538,0.2475502836513667,0.3744198040226921
Broadway & Battery Pl,4962.01,40.70463334,-74.01361706,1668,16.98915776378897,1296,372,388,1280,478,166,541,0.2865707434052758,0.23261390887290168
Duffield St & Willoughby St,4596.05,40.69221589,-73.9842844,1954,12.385581098601161,1733,221,502,1452,475,324,584,0.24309109518935518,0.2569089048106448
Lenox Ave & W 115 St,7627.10,40.8011939,-73.9500739,2251,11.101321871760698,1932,319,606,1645,472,499,620,0.20968458462905376,0.2692136828076411
Grove St & Broadway,4526.01,40.69047,-73.923511,1576,12.755112055837563,1225,351,502,1074,472,266,382,0.29949238578680204,0.31852791878172587
Sterling Pl & 5 Ave,4208.01,40.678970070475735,-73.97855266928671,1712,10.620059131619938,1508,204,576,1136,472,252,538,0.2757009345794392,0.3364485981308411
Murray St & West St,5329.08,40.71503,-74.01246,2878,13.692806885568682,2517,361,559,2319,471,305,1423,0.16365531619179985,0.19423210562890897
W 113 St & Broadway,7713.01,40.805973,-73.964928,1908,13.475424519566737,1653,255,477,1431,470,394,502,0.24633123689727462,0.25
E 12 St & Ave C,5616.08,40.727243,-73.976831,2212,9.05234003164557,1996,216,633,1579,470,700,480,0.21247739602169982,0.2861663652802893
Dean St & Franklin Ave,4107.13,40.67759206937376,-73.955637216568,2073,11.006171723749798,1788,285,712,1361,469,430,718,0.226242161119151,0.34346357935359384
E 6 St & Ave D,5506.14,40.72228087,-73.97668709,2296,10.26573119192799,2092,204,595,1701,469,732,471,0.20426829268292682,0.25914634146341464
31 St & Ditmars Blvd,7144.02,40.776168,-73.910485,2168,8.487838376383765,1922,246,573,1595,467,232,723,0.2154059040590406,0.2642988929889299
Broadway & W 37 St,6441.02,40.75172632,-73.98753523,1912,11.053252449442121,1662,250,337,1575,466,269,605,0.24372384937238495,0.17625523012552302
31 St & Newtown Ave,6923.20,40.7675487799971,-73.9209334552288,1953,9.218135961768219,1729,224,529,1424,465,278,611,0.23809523809523808,0.2708653353814644
West Thames St,5114.06,40.70834698,-74.01713445,2221,13.355835359447697,1929,292,648,1573,463,712,596,0.20846465556055832,0.29176046825754165
3 Ave & E 71 St,6960.12,40.76879,-73.9614,1916,11.340058046276965,1693,223,439,1477,460,375,591,0.24008350730688935,0.2291231732776618
E 67 St & Park Ave,6932.14,40.76780080148132,-73.96592080593109,1656,13.301502888486313,1433,223,370,1286,458,287,523,0.27657004830917875,0.22342995169082125
W 116 St & Broadway,7713.11,40.8082,-73.9641,1609,13.338031634555623,1385,224,373,1236,458,255,433,0.2846488502175264,0.23182100683654444
E 9 St & 5 Ave,5872.10,40.73275887045087,-73.99581670761108,2042,9.295340899444987,1744,298,558,1484,457,466,579,0.2238001958863859,0.2732615083251714
W 106 St & Amsterdam Ave,7634.01,40.8008363,-73.9664492472,1928,12.767753397302904,1689,239,618,1310,454,478,482,0.2354771784232365,0.32053941908713696
W 15 St & 10 Ave,6115.09,40.74275382865903,-74.00747358798981,2396,14.219221118530884,1954,442,575,1821,453,230,1030,0.1890651085141903,0.23998330550918198
3 Ave & Schermerhorn St,4437.01,40.68683208,-73.9796772,1962,10.752778287461775,1725,237,567,1395,453,313,659,0.2308868501529052,0.2889908256880734
Reade St & Broadway,5247.10,40.71450451,-74.00562789,2138,13.101631735266604,1867,271,413,1725,451,366,782,0.21094480823199252,0.1931711880261927
Cambridge Pl & Gates Ave,4377.04,40.68488,-73.96304,1980,11.432127845117845,1731,249,680,1300,450,404,606,0.22727272727272727,0.3434343434343434
E 89 St & York Ave,7204.08,40.7779453,-73.946041,2155,12.155236024748646,1944,211,588,1567,449,578,541,0.20835266821345708,0.2728538283062645
Prospect Pl & 6 Ave,4166.08,40.6793307,-73.97519523,1906,10.787474693948933,1698,208,585,1321,448,428,532,0.23504721930745015,0.30692549842602307
Clinton St & Cherry St,5190.09,40.711471394469264,-73.98672603070736,2234,10.499015652044166,1988,246,613,1621,448,641,539,0.20053715308863027,0.27439570277529096
Bushwick Ave & Powers St,5250.05,40.71247661,-73.94100005,2087,11.598041734547197,1755,332,765,1322,447,317,675,0.21418303785337806,0.366554863440345
Washington Ave & Park Pl,4116.09,40.675832,-73.963308,2297,10.186369728631549,2019,278,804,1493,446,476,759,0.19416630387461906,0.3500217675228559
W 43 St & 6 Ave,6593.14,40.75527307,-73.98316936,2074,12.04380655737705,1832,242,321,1753,445,171,934,0.21456123432979748,0.15477338476374156
Park Pl & Vanderbilt Ave,4083.13,40.6767,-73.969024,1911,11.062775056689343,1686,225,653,1258,444,307,619,0.23233908948194662,0.34170591313448456
Banker St & Meserole Ave,5633.04,40.72606,-73.95621,1992,11.197360876840696,1702,290,635,1357,443,477,531,0.22238955823293172,0.31877510040160645
Lorimer St & Calyer St,5709.04,40.72795,-73.95414,1991,10.292645437803449,1754,237,649,1342,442,532,509,0.22199899547965846,0.3259668508287293
Fulton St & Clermont Ave,4386.05,40.68415748,-73.96922273,1790,11.436909581005587,1568,222,553,1237,442,406,459,0.24692737430167597,0.3089385474860335
55 Ave & Center Blvd,6104.01,40.740288,-73.960697,2143,9.309786210919272,1943,200,701,1442,441,535,601,0.20578628091460568,0.32711152589827347
Lefferts Pl & Franklin Ave,4222.02,40.680342423,-73.9557689392,1834,10.284144002181025,1600,234,601,1233,441,344,532,0.24045801526717558,0.3276990185387132
W 48 St &  Rockefeller Plaza,6626.11,40.75776935448309,-73.97929430007935,2130,13.563103669796558,1808,322,425,1705,441,197,926,0.20704225352112676,0.19953051643192488
Ashland Pl & Dekalb Ave,4513.09,40.690065,-73.978776,1978,13.018618587799123,1728,250,680,1298,441,318,539,0.22295247724974723,0.3437815975733064
Clermont Ave & Lafayette Ave,4461.01,40.68764484,-73.96968902,1919,11.601502579468473,1647,272,620,1299,440,482,463,0.2292860865033872,0.3230849400729547
Leonard St & Church St,5359.11,40.717571,-74.005549,2307,10.389303063141165,2035,272,610,1697,439,556,760,0.19029042045947117,0.26441265713047246
Lexington Ave & Classon Ave,4452.03,40.68676793,-73.95928168,1902,12.261641552751488,1674,228,699,1203,439,423,542,0.23080967402733965,0.3675078864353312
W 111 St & 5 Ave,7587.16,40.79752078124755,-73.9489397406578,1988,13.334630625419182,1668,320,519,1469,438,531,499,0.22032193158953722,0.26106639839034207
W 46 St & 11 Ave,6795.01,40.76341379,-73.99667444,1915,12.169748372497825,1672,243,527,1388,436,519,454,0.22767624020887728,0.27519582245430807
Bergen St & 4 Ave,4322.06,40.68256425759694,-73.9798977971077,2187,10.745193979576284,1913,274,686,1501,436,335,779,0.19935985368084133,0.3136716963877458
Franklin St & W Broadway,5430.08,40.71911552,-74.00666661,1906,12.368147298006296,1638,268,561,1345,435,263,568,0.22822665267576075,0.2943336831059811
W 47 St & 6 Ave,6667.12,40.758154,-73.981957,2265,12.613629190581308,1932,333,284,1981,434,197,925,0.19161147902869757,0.12538631346578366
Leonard St & Maujer St,5148.03,40.7103685423523,-73.94705951213837,2146,11.840060989437713,1864,282,848,1298,434,412,632,0.2022367194780988,0.3951537744641193
Duane St & Hudson St,5359.12,40.71703,-74.00925,2000,12.056568508333333,1730,270,534,1466,433,413,672,0.2165,0.267
Eastern Pkwy & Washington Ave,3928.08,40.6716493,-73.9631145,1460,12.602684737442923,1211,249,530,930,432,237,349,0.2958904109589041,0.363013698630137
E 47 St & 1 Ave,6498.09,40.75206862,-73.96784384,2253,11.378111858263058,2021,232,523,1730,432,557,769,0.19174434087882822,0.23213493120284065
Hudson Blvd W & W 36 St,6611.07,40.75676475086503,-73.99971440439913,1975,11.375926160337553,1806,169,320,1655,431,712,473,0.21822784810126583,0.1620253164556962
Riverside Dr & W 82 St,7388.10,40.78720869,-73.98128127,1938,15.034273589611283,1664,274,549,1389,430,535,465,0.2218782249742002,0.28328173374613
Park Pl & Carlton Ave,4125.13,40.677358,-73.97211,2075,8.83867108433735,1835,240,544,1531,429,456,616,0.20674698795180724,0.2621686746987952
44 Dr & 21 St,6319.03,40.748036,-73.946705,1998,11.446508775442108,1714,284,586,1412,427,236,723,0.21371371371371373,0.2932932932932933
W 106 St & Central Park W,7606.01,40.7981856,-73.9605909006,1965,15.821414444444445,1636,329,636,1329,426,524,532,0.216793893129771,0.3236641221374046
Macon St & Nostrand Ave,4214.03,40.6809833854,-73.9500479759,1720,10.27352769379845,1496,224,485,1235,424,304,486,0.24651162790697675,0.2819767441860465
St Johns Pl & Washington Ave,4001.09,40.6737236,-73.9631611,1768,11.501332041855203,1555,213,704,1064,423,330,556,0.23925339366515838,0.39819004524886875
Carroll St & 6 Ave,4019.06,40.6740886,-73.9787282,1957,9.126752631578947,1808,149,569,1388,423,496,507,0.21614716402657128,0.2907511497189576
W 84 St & Amsterdam Ave,7409.04,40.78621,-73.9756,2229,12.815827889935695,2008,221,589,1640,422,675,493,0.18932256617317184,0.2642440556303275
E 45 St & 3 Ave,6464.08,40.75255434,-73.97282625,1830,11.220542531876138,1578,252,294,1536,422,297,674,0.23060109289617486,0.16065573770491803
W 74 St & Columbus Ave,7230.10,40.7785669,-73.97754961,2088,11.864434243295019,1891,197,639,1449,422,477,606,0.2021072796934866,0.30603448275862066
Clifton Pl & Bedford Ave,4485.10,40.688655,-73.955156,1851,12.868551872861516,1513,338,653,1198,421,450,472,0.22744462452728256,0.3527822798487304
Carlton Ave & Greene Ave,4386.07,40.685957,-73.971468,1649,10.950288973115018,1417,232,625,1024,420,282,466,0.2546998180715585,0.3790175864160097
Church St & Worth St,5359.13,40.71688538495366,-74.00650128722191,1919,12.172105350008684,1688,231,416,1503,420,376,629,0.21886399166232412,0.21677957269411152
E 81 St & Park Ave,7188.10,40.77677702,-73.9590097,1777,12.666640086287751,1574,203,446,1331,420,493,402,0.23635340461451884,0.2509848058525605
Court St & Huntington St,4077.07,40.67595768953126,-73.99894942833194,1612,10.547890808519437,1371,241,511,1101,418,360,394,0.25930521091811415,0.31699751861042186
Myrtle Ave & Fleet Pl,4628.07,40.693534,-73.981909,1796,12.099327756124723,1522,274,594,1202,417,338,572,0.2321826280623608,0.3307349665924276
Front St & Jay St,4895.03,40.702461,-73.986842,1622,13.890275996711877,1384,238,414,1208,417,274,529,0.25709001233045625,0.25524044389642414
Wythe Ave & N 13 St,5558.04,40.722767,-73.957021,2287,11.781856536947966,1956,331,700,1587,417,279,897,0.18233493659816352,0.3060778312199388
4 Ave & 9 St,3955.05,40.6705135,-73.98876585,1688,10.346833748025276,1417,271,572,1116,416,284,444,0.24644549763033174,0.33886255924170616
Davis St & Jackson Ave,6278.05,40.745627,-73.945661,1718,12.879414173457508,1520,198,647,1071,414,251,560,0.2409778812572759,0.3766006984866123
Berkeley Pl & 6 Ave,4134.06,40.6765304,-73.97846879,1758,11.098838016685628,1562,196,647,1111,414,347,501,0.2354948805460751,0.36803185437997726
Franklin Ave & Quincy St,4410.02,40.68636,-73.95678,1793,11.863849637479085,1531,262,717,1076,414,372,499,0.2308979364194088,0.39988845510317905
Peck Slip & South St,5096.12,40.7075188830923,-74.00108054280281,1631,14.967574054772122,1213,418,566,1065,414,215,513,0.25383200490496627,0.34702636419374616
McGuinness Blvd & Eagle St,5977.01,40.73555,-73.95284,1752,9.857963118340944,1499,253,577,1175,413,507,466,0.23573059360730594,0.329337899543379
Madison St & Montgomery St,5262.09,40.713126,-73.984844,2026,9.480876077657124,1867,159,504,1522,413,544,512,0.20384995064165845,0.24876604146100692
E 25 St & 1 Ave,6004.07,40.7381765,-73.97738662,1986,10.2962963578382,1809,177,394,1592,413,615,393,0.2079556898288016,0.19838872104733132
1 Ave & E 44 St,6379.03,40.75001986,-73.96905301,1938,12.0135400498796,1745,193,253,1685,410,457,609,0.21155830753353974,0.130546955624355
Catherine St & Monroe St,5128.04,40.71117444,-73.99682619,1753,10.288892945426888,1580,173,446,1307,409,576,370,0.23331431831146607,0.25442099258414147
Broadway & Whipple St,4883.03,40.7016657,-73.9437303,1553,11.865121259927024,1336,217,442,1111,409,211,440,0.2633612363168062,0.28461043142305215
Sands St & Jay St,4821.03,40.700119,-73.9862,2289,13.059404514343965,1902,387,615,1674,409,398,927,0.17868064657055482,0.2686762778505898
Adam Clayton Powell Blvd & W 123 St,7704.04,40.8078316,-73.949373,1585,12.039021009463724,1422,163,363,1222,408,363,351,0.25741324921135644,0.22902208201892746
Madison Ave & E 51 St,6659.09,40.75863,-73.97513,1718,12.017247332169188,1529,189,263,1455,405,184,625,0.23573923166472643,0.1530849825378347
W 100 St & Manhattan Ave,7538.14,40.795,-73.9645,2071,12.204038588443586,1838,233,661,1410,402,534,538,0.19410912602607436,0.31916948334138096
Cherry St,5181.04,40.71219906,-73.97948148,1668,12.793821622701838,1467,201,542,1126,401,546,375,0.24040767386091128,0.3249400479616307
Madison Ave & E 99 St,7443.01,40.78948541553215,-73.95242929458618,1576,12.121471002538073,1429,147,279,1297,401,255,392,0.25444162436548223,0.17703045685279187
Manhattan Ave & Devoe St,5219.05,40.713532,-73.9459867,1863,11.190064117015567,1591,272,638,1225,400,432,489,0.2147074610842727,0.34245840042941494
Albany St & Greenwich St,5145.02,40.709267,-74.013247,1781,16.4451758001123,1406,375,440,1341,400,332,582,0.22459292532285233,0.24705221785513756
Congress St & Clinton St,4455.10,40.68825516598005,-73.99545192718506,1654,10.163529453849256,1480,174,455,1199,399,530,345,0.24123337363966144,0.2750906892382104
E 75 St & 3 Ave,6991.12,40.77112927,-73.95772297,1906,12.729535335781742,1719,187,555,1351,398,539,461,0.2088142707240294,0.29118572927597064
Lincoln Pl & Classon Ave,3960.01,40.6721683,-73.9609,1450,11.400950103448276,1282,168,428,1022,398,352,322,0.27448275862068966,0.29517241379310344
Front St & Gold St,4927.04,40.70224,-73.982578,1581,12.674748956356735,1362,219,511,1070,398,272,510,0.25173940543959517,0.32321315623023406
E 82 St & East End Ave,7049.04,40.7724607,-73.9468208,1912,11.671720092398886,1791,121,433,1479,397,686,378,0.20763598326359833,0.22646443514644352
W Broadway & W Houston St,5644.05,40.726378,-74.000472,2067,12.132160699887116,1837,230,563,1504,397,299,683,0.19206579583938074,0.27237542331881953
27 St & Hunter St,6310.06,40.7485,-73.941275,1804,13.75016893939394,1534,270,662,1142,396,249,592,0.21951219512195122,0.3669623059866962
Washington St & Barrow St,5847.08,40.73191132323174,-74.008769094944,1939,11.144245856970947,1688,251,441,1498,396,557,530,0.20422898401237752,0.22743682310469315
10 St & 5 Ave,3842.08,40.6686273,-73.98700053,1375,10.725447333333333,1202,173,444,931,396,249,345,0.288,0.3229090909090909
W 94 St & Central Park W,7453.08,40.790431,-73.965894,1596,13.797765685045949,1377,219,344,1252,394,519,354,0.24686716791979949,0.21553884711779447
Crescent St & Broadway,6827.11,40.7633589,-73.9286471,1855,10.415741176999102,1673,182,551,1304,394,373,563,0.21239892183288409,0.29703504043126683
Smith St & 3 St,4151.01,40.6787242,-73.99599099,1784,9.974436005231688,1554,230,452,1332,393,404,513,0.2202914798206278,0.2533632286995516
3 Ave & Carroll St,4143.04,40.677027,-73.9865,1681,11.293109845330159,1506,175,444,1237,393,327,509,0.23378941106484236,0.264128494943486
Washington Ave & Greene Ave,4419.03,40.68650065,-73.96563307,1736,11.393512893625193,1485,251,644,1092,393,359,480,0.22638248847926268,0.3709677419354839
President St & 4 Ave,4101.17,40.676757,-73.983262,1801,10.401602470849527,1612,189,555,1246,392,407,510,0.21765685730149917,0.3081621321488062
Pike St & Monroe St,5159.04,40.71173107,-73.99193043,1760,9.86906694128788,1562,198,535,1225,392,490,407,0.22272727272727272,0.3039772727272727
W 110 St & Amsterdam Ave,7646.04,40.802692,-73.96295,1794,13.297178567447046,1526,268,543,1251,392,352,508,0.21850613154960982,0.30267558528428096
28 St & 41 Ave,6462.19,40.751047,-73.93797,1520,12.537811699561404,1288,232,442,1078,392,240,440,0.2578947368421053,0.29078947368421054
Roosevelt Island Tramway,6599.01,40.757284,-73.9536,1366,23.797111908247928,652,714,586,780,391,121,488,0.2862371888726208,0.4289897510980966
Varick St & Watts St,5539.08,40.723635749203936,-74.006020305859,1721,10.79073290722448,1517,204,436,1285,391,292,654,0.2271934921557234,0.2533410807669959
Garfield Pl & 8 Ave,3978.13,40.6711978,-73.97484126,2034,10.407714314978694,1788,246,613,1421,391,503,595,0.19223205506391347,0.30137659783677484
E 85 St & York Ave,7146.04,40.77536905,-73.94803392,1976,11.319606958502025,1833,143,550,1426,389,664,460,0.19686234817813766,0.2783400809716599
4 Ave & 3 St,4028.04,40.673746,-73.985649,1535,10.866490901194354,1375,160,482,1053,389,373,392,0.2534201954397394,0.31400651465798046
Myrtle Ave & Lewis Ave,4729.01,40.69681963,-73.93756926,1696,11.246234237421383,1390,306,497,1199,387,306,451,0.22818396226415094,0.2930424528301887
Greenwich St & Hubert St,5470.10,40.721319,-74.010065,2631,12.097003256049664,2444,187,253,2378,386,198,1450,0.1467122767008742,0.09616115545419993
Crescent St & 30 Ave,6958.06,40.768692,-73.9249574,1594,10.81888791300711,1389,205,444,1150,385,352,418,0.24153074027603513,0.27854454203262236
1 Ave & E 110 St,7522.02,40.7923272,-73.9383,1719,11.435213971301145,1490,229,462,1257,383,393,425,0.222803955788249,0.268760907504363
Union St & 4 Ave,4175.15,40.6772744,-73.98282002,1491,11.319637927565394,1303,188,524,967,383,237,444,0.25687458081824277,0.35144198524480214
West End Ave & W 107 St,7650.05,40.8021174,-73.9681805305,1748,13.722960812356979,1558,190,549,1199,383,410,442,0.21910755148741418,0.31407322654462244
William St & Pine St,5065.12,40.70717936,-74.00887308,2017,13.770820261113865,1782,235,449,1568,380,395,670,0.18839861179970252,0.2226078334159643
Degraw St & 3 Ave,4217.06,40.67977,-73.9847,1690,10.715889260355029,1539,151,520,1170,379,374,556,0.2242603550295858,0.3076923076923077
Ave C & E 16 St,5769.06,40.72984830346529,-73.97455215454102,2126,10.482544708372531,1945,181,595,1531,379,659,558,0.17826904985888994,0.27986829727187207
Carroll St & Columbia St,4348.07,40.6830456,-74.00348559,1709,10.924912658474742,1516,193,466,1243,378,530,448,0.22118197776477472,0.272674078408426
Arion Pl & Broadway,4801.10,40.697891,-73.936642,1652,12.124717261904761,1324,328,504,1148,378,259,475,0.2288135593220339,0.3050847457627119
Bond St & Bergen St,4404.10,40.6849668,-73.98620772,1522,10.490364695575996,1351,171,492,1030,378,355,414,0.2483574244415243,0.3232588699080158
Warren St & Smith St,4371.01,40.68542400997018,-73.99127773940563,1710,10.88759760233918,1495,215,590,1120,378,281,529,0.22105263157894736,0.34502923976608185
Center Blvd & 51 Ave,6179.07,40.74336608027021,-73.95960688591003,1634,12.06934674622603,1368,266,532,1102,377,312,522,0.2307221542227662,0.32558139534883723
W 40 St & 7 Ave,6560.14,40.754818,-73.988154,2477,10.715183097833402,2115,362,409,2068,376,645,773,0.15179652805813484,0.16511909568025837
Madison St & Clinton St,5190.07,40.71269042,-73.98776323,1406,9.168548850165955,1288,118,331,1075,376,424,253,0.267425320056899,0.23541963015647227
Union St & Bedford Ave,3879.04,40.6691783,-73.9554162,1597,11.392453517011061,1392,205,565,1032,376,324,482,0.23544145272385722,0.3537883531621791
Butler St & Court St,4339.01,40.6849894,-73.99440329,1410,10.47323671394799,1201,209,459,951,375,314,356,0.26595744680851063,0.32553191489361705
Wyckoff Ave & Stanhope St,4931.05,40.703545,-73.917775,2073,10.120692217398295,1765,308,626,1447,373,219,620,0.1799324650265316,0.30197780993728895
Central Park W & W 103 St,7577.27,40.79558954105342,-73.96188408136368,1733,14.457602106174265,1380,353,522,1211,373,475,443,0.2152336987882285,0.30121177149451817
7 St & 5 Ave,3914.02,40.6704922,-73.98541675,1429,10.313240739444833,1293,136,480,949,371,294,409,0.2596221133659902,0.3358992302309307
E 66 St & Madison Ave,6969.08,40.76800889305947,-73.96845281124115,1332,14.10764224224224,1054,278,341,991,371,211,380,0.27852852852852855,0.256006006006006
W 51 St & Rockefeller Plaza,6700.14,40.75973805251143,-73.97811613976955,1711,12.901378394700954,1462,249,261,1450,370,139,721,0.2162478082992402,0.15254237288135594
1 Pl & Clinton St,4193.14,40.6809591,-73.99905709,1532,10.219182691470843,1345,187,468,1064,368,485,340,0.2402088772845953,0.30548302872062666
Degraw St & Smith St,4298.05,40.6829151,-73.99318208,1600,10.807127895833332,1384,216,522,1078,366,327,443,0.22875,0.32625
Ave D & E 8 St,5506.10,40.72368361,-73.97574813,1648,9.47018080501618,1518,130,440,1208,365,511,398,0.22148058252427186,0.2669902912621359
South St & Whitehall St,4846.01,40.70122128,-74.01234218,2023,16.9428585187016,1606,417,506,1517,364,473,575,0.17993079584775087,0.25012357884330205
Park Ave & E 40 St,6432.15,40.75112,-73.97851,2254,11.005194188110027,2065,189,222,2032,364,359,909,0.16149068322981366,0.09849157054125998
E 58 St & 1 Ave (NE Corner),6682.03,40.75892386377695,-73.96226227283478,1755,12.459416638176638,1611,144,489,1266,364,365,563,0.2074074074074074,0.27863247863247864
Convent Ave & W 135 St,7860.08,40.818215,-73.950988,892,14.034193927503736,777,115,77,815,364,130,194,0.4080717488789238,0.08632286995515695
Flatbush Ave & Ocean Ave,3704.04,40.663657,-73.963014,1140,15.809640146198829,797,343,411,729,363,144,314,0.31842105263157894,0.3605263157894737
Clinton St & 4 Place,4119.04,40.6783563,-74.00014502,1454,10.161011038514442,1292,162,403,1051,363,405,321,0.24965612104539203,0.27716643741403024
Riverside Dr & W 104 St,7623.13,40.8013434,-73.9711457439,1497,17.906298519260744,1265,232,495,1002,363,408,417,0.24248496993987975,0.3306613226452906
E 78 St & 2 Ave,7057.07,40.7727966,-73.95577801,1932,11.74819805900621,1745,187,552,1380,362,537,465,0.1873706004140787,0.2857142857142857
Sterling Pl & Bedford Ave,3993.03,40.672695,-73.954131,1685,10.947844134520276,1490,195,543,1142,361,437,481,0.2142433234421365,0.32225519287833826
Broadway & 74 St,6332.10,40.74653,-73.89121,1919,9.14991285391697,1642,277,529,1390,361,194,685,0.18811881188118812,0.2756644085461178
President St & Henry St,4307.13,40.6828003,-73.99990419,1449,9.759902714515759,1307,142,440,1009,360,485,288,0.2484472049689441,0.3036576949620428
Douglass St & 3 Ave,4217.02,40.6802133,-73.98432695,1619,11.309497004323656,1470,149,416,1203,360,307,518,0.22235948116121063,0.25694873378628785
Frederick Douglass Blvd & W 115 St,7658.13,40.8038654,-73.9559308,1806,11.812792875599854,1566,240,570,1236,360,458,467,0.19933554817275748,0.31561461794019935
Franklin Ave & St Marks Ave,4107.05,40.6758324,-73.9561677,1977,10.381118192547632,1748,229,681,1296,360,462,570,0.18209408194233687,0.34446130500758726
Grand St & Wythe Ave,5348.10,40.71575,-73.96433,1406,13.671288537221432,1113,293,565,841,357,201,438,0.25391180654338547,0.4018492176386913
Henry St & Degraw St,4380.08,40.6847514,-73.99917254,1664,9.27682180488782,1491,173,475,1189,355,511,436,0.21334134615384615,0.2854567307692308
Pacific St & Nevins St,4362.04,40.6853761,-73.98302136,1587,10.82746089056921,1380,207,453,1134,355,353,487,0.2236925015752993,0.28544423440453687
W 54 St & 6 Ave,6771.13,40.761865,-73.977242,1931,13.581318358363543,1674,257,325,1606,355,173,998,0.18384256861729673,0.16830657690315898
West End Ave & W 94 St,7524.09,40.7941654,-73.974124,1496,13.168401270053476,1350,146,381,1115,355,383,379,0.23729946524064172,0.25467914438502676
Grand Ave & Bergen St,4190.06,40.678045,-73.962408,1707,10.767926244874047,1522,185,551,1156,353,396,519,0.20679554774458114,0.322788517867604
Ave A & E 14 St,5779.11,40.73031071000895,-73.98047178983688,1684,7.087536668646081,1565,119,767,917,353,252,504,0.20961995249406176,0.45546318289786225
Clinton St & Union St,4266.03,40.6831164,-73.99785267,1608,10.421915806384742,1401,207,424,1184,352,623,319,0.21890547263681592,0.263681592039801
Scholes St & Lorimer St,5076.04,40.708323,-73.948732,1620,11.739926790123457,1458,162,536,1084,352,420,456,0.21728395061728395,0.3308641975308642
Frost St & Meeker Ave,5371.07,40.71766197083994,-73.94880026578903,1875,11.193688293333334,1654,221,688,1187,351,390,531,0.1872,0.36693333333333333
